id_nombre,nombre,direccion,id_ciudad,ciudad,codigo_postal,latitud,longitud,puntuacion_yelp,categories,puntuacion_usuarios,anio,analisis_sentimientos
0002,London Heights British Pub,7701 N Nebraska Ave,RGTW,Tampa,33664,28.0177637,-82.4510332,3.5,"Bars, Pubs, Sports Bars, Nightlife, Restaurants, British, Burgers, Breakfast & Brunch",3.1,2020,1.0
0010,Orderqd,"4304 S Dale Mabry Hwy, Ste 1",RGTW,Tampa,33664,27.9030326,-82.50544580000002,4.5,"Burgers, Chicken Wings, Restaurants, Chicken Shop, Food Delivery Services, Food, Sandwiches",4.6,2020,1.0
0013,Chulas Mexican Grill,11061 Spring Hill Dr,I0WF,Spring Hill,34610,28.4617699,-82.541448,3.5,"Mexican, Restaurants",3.0,2020,1.0
0015,Twistee Treat - Spring Hill II,1329 Commercial Way,I0WF,Spring Hill,34610,28.452841,-82.631433,3.5,"Food, Desserts, Restaurants, Ice Cream & Frozen Yogurt, Hot Dogs, Juice Bars & Smoothies",3.7,2020,1.0
0018,Mr. Dunderbak's,14929 Bruce B Downs Blvd,RGTW,Tampa,33664,28.083089,-82.411907,4.5,"Beer, Wine & Spirits, Food, Pubs, German, American (Traditional), Restaurants, Bars, Nightlife",4.6,2020,1.0
002e,Al-Sham Palace,19651 Bruce B Downs Blvd,RGTW,Tampa,33664,28.153027,-82.352353,4.5,"Restaurants, Chicken Wings, Mediterranean, Desserts, Sandwiches, Food",4.3,2020,1.0
0038,Old Southeast Market,1700 3rd St S,9EV3,San Petersburgo,33730,27.7534309604,-82.63671197,5.0,"Local Services, Food, Restaurants, Convenience Stores, Grocery, Delis, Propane, Specialty Food, Coffee & Tea, Poke",4.9,2020,1.0
003c,Glory Days Grill,16553 Pointe Village Dr,1GQ7,Lutz,33559,28.07223812649387,-82.47171977341657,3.7,"American (Traditional), Sports Bars, Nightlife, Chicken Wings, Bars, Restaurants",3.7,2020,1.0
0040,Beef 'O' Brady's,210 S Kings Ave,W2W7,Brandon,33511,27.99098173597551,-82.43123014325714,2.8,"Restaurants, Fast Food, American (Traditional), Sports Bars, Pubs, Beer, Wine & Spirits, Food, Bars, Nightlife",2.8,2020,1.0
0057,Yamato Japanese Steakhouse & Sushi Bar,"28347 Paseo Dr, Ste 150",CQ72,Wesley Chapel,33545,28.1885468235,-82.3468945497,3.0,"Steakhouses, Japanese, Sushi Bars, Restaurants",3.5,2020,1.0
005f,Casa Ludovico,1710 Alt 19,IKXB,Palm Harbor,34685,28.0837051826,-82.7670471431,4.0,"Restaurants, Nightlife, Bars, Italian, Wine Bars",3.8,2020,1.0
0063,Kurry Xpress,10069 E Adamo Dr,RGTW,Tampa,33664,27.941878835,-82.3376758397,4.0,"Vegetarian, Pakistani, Indian, Restaurants, Halal",4.9,2020,1.0
006c,Adriano's Rosie's Cafe,2745 E Bay Dr,LIFE,Largo,33778,27.9161751,-82.7585918,4.0,"American (Traditional), Restaurants, Italian, Breakfast & Brunch, Greek",4.0,2020,1.0
0078,Busy Bee Snak Shop,7345 49th St,SJ01,Pinellas Park,33782,27.8386081,-82.6996523,4.0,"Restaurants, American (Traditional), Armenian, Desserts, Food, Breakfast & Brunch",5.0,2020,1.0
0084,Jin China,10041 E Adamo Dr,RGTW,Tampa,33664,27.9430052,-82.3365132,2.5,"Chinese, Restaurants",4.0,2020,1.0
00a2,The Blind Tiger Cafe - Ybor City,1901 E 7th Ave,RGTW,Tampa,33664,27.9601407,-82.4378181,4.5,"Shopping, Vegan, Vegetarian, Beer, Wine & Spirits, Sandwiches, Food, Bagels, Bakeries, Coffee & Tea, Men's Clothing, American (Traditional), Restaurants, Women's Clothing, Breakfast & Brunch, Acai Bowls, Fashion, Cafes",4.2,2020,1.0
00b4,Clean Eatz Tampa,"3838 W Neptune St, Ste D2",RGTW,Tampa,33664,27.9297206,-82.5076338,4.0,"Cafes, Salad, Caterers, Event Planning & Services, Juice Bars & Smoothies, Restaurants, Food, Sandwiches, American (Traditional)",1.0,2020,0.5
00b9,Mamas Kitchen,9312 N Florida Ave,RGTW,Tampa,33664,27.94675916595745,-82.53716390425532,4.4,"Breakfast & Brunch, Restaurants, American (Traditional), Greek, Diners",4.7,2020,1.0
00d3,Planet Grilled Cheese - Citrus Park Mall -,"8021 Citrus Park, Ste FC7",RGTW,Tampa,33664,28.069843,-82.576537,3.5,"Fast Food, Restaurants, Sandwiches, American (Traditional)",3.3,2020,1.0
00f5,Alvarez Authentic Latin Food 2,12227 N Florida Ave,RGTW,Tampa,33664,28.0591623,-82.4590032,4.5,"Tacos, Mexican, Breakfast & Brunch, Latin American, Restaurants",4.5,2020,1.0
00fc,Salty's Island Bar & Grille,437 S Gulfview Blvd,EXHF,Clearwater Beach,33767,27.969764,-82.829336,4.0,"Mexican, American (New), Seafood, Bars, Sandwiches, Restaurants, Nightlife",4.3,2020,1.0
010a,Plant Love Ice Cream,953 Central Ave,9EV3,San Petersburgo,33730,27.7713117,-82.6479817,5.0,"Desserts, Food, Ice Cream & Frozen Yogurt, Restaurants, Vegan",4.5,2020,1.0
0124,Chopstick Express,3946 4th St N,9EV3,San Petersburgo,33730,27.8082326777,-82.63892399999999,4.0,"Restaurants, Japanese, Chinese, Soup",4.2,2020,1.0
0132,Main Course Brandon,1608 Florida Hwy 60,HGEX,Valrico,33596,27.938138638,-82.2600055312,2.5,"Restaurants, Seafood, Comfort Food, Breakfast & Brunch",1.0,2020,1.0
013a,Windy City Pizza,19651 Bruce B Downs Blvd,RGTW,Tampa,33664,28.1520687,-82.3523094,4.5,"Pizza, Nightlife, Bars, Sports Bars, Restaurants, American (Traditional)",5.0,2020,1.0
0147,China Gate,12919 Walsingham Rd,LIFE,Largo,33778,27.8814892334,-82.8175278552,3.5,"Chinese, Restaurants",4.0,2020,1.0
015b,The Ravioli Company,5130 S Dale Mabry Hwy,RGTW,Tampa,33664,27.89062,-82.505933,4.5,"Restaurants, Event Planning & Services, Caterers, Specialty Food, Pasta Shops, Food, Italian",5.0,2020,1.0
017d,High & Dry Grill,61 Causeway Blvd,L2T6,Dunedin,34698,28.0561887448,-82.8071894869,4.0,"Active Life, Restaurants, Shaved Ice, Beer Bar, Food, American (New), Nightlife, Sandwiches, Bars, Beaches, Local Flavor, Tiki Bars, American (Traditional)",3.4,2020,1.0
017e,Portillo's - Tampa,2102 E Fowler Ave,RGTW,Tampa,33664,28.055135418400003,-82.4384075403,4.0,"Hot Dogs, Salad, Burgers, American (Traditional), Restaurants",3.5,2020,1.0
01b4,Leaven Brewing,11238 Boyette Rd,TC12,Riverview,33579,27.8546081786,-82.3164156822,4.5,"Pretzels, Brewpubs, Sandwiches, Restaurants, Food, Breweries",4.8,2020,1.0
01d6,Mandy's Restaurant,"4025 W Waters Ave, Ste 101",RGTW,Tampa,33664,28.0258138,-82.5113635522,4.5,"Sandwiches, Restaurants, Cuban, Mexican",5.0,2020,1.0
01fc,Lorna's One Stop Jerk Center Restaurant,2108 N Howard Ave,RGTW,Tampa,33664,27.9603339,-82.483016,4.0,"Restaurants, Caribbean, Chinese",4.8,2020,1.0
022d,Bazille,2223 N Westshore Blvd,RGTW,Tampa,33664,27.9638334,-82.5224436,4.5,"Cafes, Bars, American (New), Restaurants, Cocktail Bars, Nightlife, Lounges, Comfort Food",4.7,2020,1.0
0238,Floridan Lounge,905 N Florida Ave,RGTW,Tampa,33664,27.952083,-82.458418,4.5,"Mediterranean, Nightlife, Bars, Lounges, Restaurants",5.0,2020,1.0
0239,Sioux City Steakhouse,8515 Little Rd,3IHW,New Port Richey,34655,28.281002,-82.677738,3.0,"American (Traditional), Nightlife, Steakhouses, Caterers, Event Planning & Services, Bars, Restaurants",2.7,2020,1.0
023f,Mana Mana Middle Eastern Restaurant,530 Park St,MCCU,Clearwater,33769,27.9649007701,-82.7988444641,4.5,"Kosher, Restaurants, Middle Eastern, Mediterranean",4.6,2020,1.0
0254,Clean Juice Wiregrass,"28211 Paseo Dr, Ste 170",CQ72,Wesley Chapel,33545,28.1890779,-82.3496817,4.0,"Food, Wraps, Restaurants, Acai Bowls, Juice Bars & Smoothies",5.0,2020,1.0
0260,Montados by Mise En Place @ Sparkman Wharf,615 Channelside Dr,RGTW,Tampa,33664,27.94295,-82.44751,3.0,"Restaurants, Tapas Bars, Spanish, Wine Bars, Nightlife, Bars",4.0,2020,1.0
0261,Tsunami Japanese Steakhouse,2176 Tyrone Blvd N,9EV3,San Petersburgo,33730,27.7899621,-82.7262212,3.0,"Steakhouses, Restaurants, Sushi Bars, Japanese",2.2,2020,1.0
0267,Pick-A-Deli,13664 Walsingham Rd,LIFE,Largo,33778,27.801637958292307,-82.52814984573845,4.0,"Delis, Sandwiches, Salad, Restaurants",4.0,2020,1.0
026a,Callaloo,642 22nd St S,9EV3,San Petersburgo,33730,27.76354,-82.66293,4.0,"Restaurants, Bars, Southern, Nightlife, Caribbean, Cocktail Bars",4.0,2020,1.0
0294,Buddy Freddys Restaurant,1101 Goldfinch Dr,7QXG,Plant City,33567,28.025117,-82.1480323,3.5,"Southern, Buffets, Restaurants",4.0,2020,1.0
02a2,Cicis,1560 North Mcmullen Booth Rd,MCCU,Clearwater,33769,27.910221040933337,-82.55963153262222,2.6,"Food, Salad, Restaurants, Pizza, Desserts",3.3,2020,1.0
02a4,Lanna Thai and Sushi Restaurant,4871 Park St N,9EV3,San Petersburgo,33730,27.816090299999995,-82.7534293,4.0,"Thai, Restaurants",4.2,2020,1.0
02c0,Far East Chinese Restaurant,5022 E 10th Ave,RGTW,Tampa,33664,27.9644881,-82.4008771,4.5,"Chinese, Restaurants",4.6,2020,1.0
02c2,Pho 97,6800 49th St N,SJ01,Pinellas Park,33782,27.8337538,-82.7000149,4.0,"Vietnamese, Restaurants",3.3,2020,1.0
0318,Palm Thai,17022 Palm Pointe Dr,RGTW,Tampa,33664,28.1184025,-82.3816714,4.5,"Thai, Restaurants",4.3,2020,1.0
0339,Largo Golf Course,12500 Vonn Rd,LIFE,Largo,33778,27.8868646407,-82.8209533229,4.0,"Active Life, Golf, Fish & Chips, Golf Equipment, Shopping, Restaurants, Sporting Goods",4.0,2020,1.0
0344,"""Genuino"" Italian Cafe'",14351 N Dale Mabry Hwy,RGTW,Tampa,33664,28.0779361,-82.5061735,4.5,"Pizza, Breakfast & Brunch, Restaurants, Food, Cafeteria, Gelato",4.0,2020,1.0
034a,New York New York Pizza,1512 E 7th Ave,RGTW,Tampa,33664,27.992721682871423,-82.4705955392,3.6,"Sandwiches, Burgers, Pizza, Restaurants",3.7,2020,1.0
034d,El Toro Loco,2301 N Dale Mabry Hwy,RGTW,Tampa,33664,27.9618230719,-82.505075857,3.5,"Bars, Mexican, Nightlife, Restaurants",3.6,2020,1.0
037c,Jungle Prada Tavern,1700 Park St N,9EV3,San Petersburgo,33730,27.7886629071,-82.7528067895,3.5,"Salad, Bars, Pubs, Food, Restaurants, Pizza, Nightlife",2.6,2020,1.0
037e,Fishhawk Pizza,15260 Fishhawk Blvd,BONO,Lithia,33547,27.8837949868,-82.37273063992667,3.6,"Pizza, Restaurants, Food, American (New)",4.1,2020,1.0
0386,Pan Filo's,656 S Gulfview Blvd,MCCU,Clearwater,33769,27.9673166,-82.8253093,4.0,"Mexican, Bars, Nightlife, Cocktail Bars, Restaurants",4.4,2020,1.0
038a,Munchies,11208 E Dr Martin Luther King Jr,JIN0,Seffner,33584,27.9820616,-82.3098975,3.0,"Pizza, Restaurants, Chicken Wings",2.0,2020,1.0
0394,Caribbean Twist,3328 W Columbus Dr,RGTW,Tampa,33664,27.9664178,-82.499238,4.5,"Sandwiches, Restaurants, Spanish, Salad, Breakfast & Brunch, Cuban, Caribbean",4.8,2020,1.0
0397,Brooklyn Pizza,10785 Park Blvd,8ZKX,Seminole,33777,27.841115,-82.788518,4.0,"American (Traditional), Restaurants, Pizza",3.5,2020,1.0
039b,Oasis Bakery & Middle Eastern Foods,"1450 Skipper Rd, Ste 12-16",RGTW,Tampa,33664,28.0807894089,-82.4434833214,4.5,"International Grocery, Middle Eastern, Food, Specialty Food, Bakeries, Restaurants, Grocery",4.5,2020,1.0
03ba,Rum Runners,2706 US-19 ALT,IKXB,Palm Harbor,34685,28.093237,-82.7707999,2.5,"Pubs, Bars, Nightlife, Sports Bars, Restaurants, American (Traditional)",5.0,2020,1.0
03e5,Oronzo Italian,18027 Highwoods Preserve Pkwy,RGTW,Tampa,33664,28.1302388,-82.3677341,4.5,"Salad, Soup, Italian, Restaurants, Pizza",4.4,2020,1.0
03f4,Elmer's Sports Cafe,2003 E 7th Ave,RGTW,Tampa,33664,27.98794594,-82.51702884,3.8,"Restaurants, Chicken Wings, Sports Bars, Nightlife, Bars, Sandwiches",4.2,2020,1.0
03fe,Flying With Jerome,1469 S Belcher Rd,MCCU,Clearwater,33769,27.943211600000005,-82.7453974,4.5,"Restaurants, Food, French, Cafes, Bakeries, Breakfast & Brunch, Patisserie/Cake Shop",4.3,2020,1.0
03ff,The Moon Under Water,332 Beach Dr NE,9EV3,San Petersburgo,33730,27.7758481,-82.6321798,3.5,"Nightlife, British, Pubs, Bars, Indian, Restaurants",3.8,2020,1.0
040c,Off The Grid,208 1st St,SOWC,Indian Rocks Beach,33785,27.8800008008,-82.849699147,4.5,"Bars, Barbeque, Nightlife, Caribbean, Restaurants",4.6,2020,1.0
0444,Captain Crab-Cajun Seafood,10164 US-19,9LT4,Port Richey,34668,28.305306000000005,-82.7014183,3.0,"American (Traditional), Seafood, Restaurants, Cajun/Creole",1.9,2020,1.0
0449,Mid Peninsula Seafood,400 49th St S,9EV3,San Petersburgo,33730,27.7670324,-82.6995131,4.5,"Restaurants, Seafood Markets, Food, Seafood, Specialty Food, Local Flavor",3.9,2020,1.0
0471,Bobby Sandwich Shop,2903 N Armenia Ave,RGTW,Tampa,33664,27.9664613855,-82.4847530044,4.5,"Sandwiches, Restaurants, Burgers, Cuban, Delis",5.0,2020,1.0
0479,Big Apple Bagels,"23908 State Road 54, Unit 1",1GQ7,Lutz,33559,28.1853072,-82.4214836,4.0,"Bagels, Food, Sandwiches, Breakfast & Brunch, Restaurants, Coffee & Tea",4.3,2020,1.0
047c,Hector's Mexican Food,3120 E Hillsborough Ave,RGTW,Tampa,33664,27.995775,-82.42476,4.0,"Restaurants, American (Traditional)",4.5,2020,1.0
0498,Boss Bitch Pizza,"533 S Howard Ave, Ste 8",RGTW,Tampa,33664,27.9396713,-82.4834192,3.5,"Vegan, Food Delivery Services, Gluten-Free, Pizza, Food, Restaurants",3.7,2020,1.0
04b2,Fortunatos Pizza Station,4687 Park Blvd N,SJ01,Pinellas Park,33782,27.8396741647,-82.6976715433,3.5,"Restaurants, Pizza, Italian",3.4,2020,1.0
04cb,Trang Viet Cuisine,230 E Bearss Ave,RGTW,Tampa,33664,28.0894957,-82.4584569,4.0,"Restaurants, Vietnamese, Vegan",4.8,2020,1.0
04d8,Slizzy Mcgee's,1159 62nd Ave N,9EV3,San Petersburgo,33730,27.8297051475,-82.6502658182,3.0,"Nightlife, Pubs, Bars, Sports Bars, Chicken Wings, Barbeque, Restaurants",2.2,2020,0.5
04db,Central Coffee Shoppe,530 Central Ave,9EV3,San Petersburgo,33730,27.770904,-82.640892,3.5,"Breakfast & Brunch, Restaurants, Sandwiches, American (Traditional)",4.0,2020,1.0
04e2,Chicago Paulies,1301 N Howard Ave,RGTW,Tampa,33664,27.954493751600005,-82.4828329682,5.0,"Hot Dogs, Vegetarian, Burgers, Restaurants, Food Stands, Sandwiches",4.9,2020,1.0
04e4,Willie Jewell's Old School Bar-B-Q Big Bend,10787 Big Bend Rd,TC12,Riverview,33579,27.791641,-82.329139,3.5,"Southern, Sandwiches, Barbeque, Restaurants",3.3,2020,1.0
04eb,Token Ramen & Kung Fu Tea,5914 Providence Road Riverview,TC12,Riverview,33579,27.919532827524137,-82.41856855838448,4.0,"Coffee & Tea, Bubble Tea, Taiwanese, Japanese, Ramen, Food, Asian Fusion, Restaurants",4.0,2020,1.0
04f9,Tarpon Tavern,21 N Safford Ave,3IGC,Tarpon Springs,34689,28.146786,-82.754822,4.0,"Nightlife, Gastropubs, American (Traditional), Pubs, Burgers, Food, Bars, Restaurants, Beer, Wine & Spirits",3.6,2020,1.0
0507,YUPPI,1821 E 7th Ave,RGTW,Tampa,33664,27.9600843,-82.4384412,4.5,"American (New), Restaurants, Seafood, Soul Food, Chicken Wings, Southern",4.5,2020,1.0
0520,Chief's Creole Cafe,901 22nd St S,9EV3,San Petersburgo,33730,27.7610061,-82.6631098,4.5,"Cajun/Creole, Caterers, Event Planning & Services, Restaurants, Seafood, Comfort Food, Barbeque",4.6,2020,1.0
052c,More Italian Bistro & Pizzeria,17669 N Dale Mabry Hwy,1GQ7,Lutz,33559,28.1261338,-82.5008028,3.5,"Pizza, Restaurants, Italian",5.0,2020,1.0
0538,Smashburger,"10801 Starkey Rd, Ste 4",LIFE,Largo,33778,27.895050237185185,-82.65902957940742,3.0,"Burgers, Restaurants",2.9,2020,1.0
0543,Tacos Las Californias,7007 N Armenia Ave,RGTW,Tampa,33664,28.012180500000003,-82.4844344,4.5,"Restaurants, Tacos, Food, Mexican, Food Trucks",4.5,2020,1.0
0544,The Club House Restaurant,"10801 Starkey Rd, Ste 24",8ZKX,Seminole,33777,27.870721,-82.7604,4.5,"Restaurants, American (Traditional), Salad, Sandwiches",3.0,2020,1.0
0545,Little Habana Cafe,13350 Lincoln Rd,TC12,Riverview,33579,27.7901328,-82.342751,4.0,"Cuban, Seafood, Restaurants, Latin American",4.8,2020,1.0
0570,Bamboozle Cafe,516 N Tampa St,RGTW,Tampa,33664,27.94857,-82.459404,4.0,"Caterers, Cafes, Coffee & Tea, Event Planning & Services, Restaurants, Asian Fusion, Food, Vietnamese, Vegan, Gluten-Free",4.2,2020,1.0
0581,On A Roll Sushi,"101 N Franklin St, Ste C",RGTW,Tampa,33664,27.94567,-82.456745,4.0,"Restaurants, Food, Thai, Sushi Bars, Japanese",4.2,2020,1.0
0589,Zen Forrest,4148 Rowan Rd,3IHW,New Port Richey,34655,28.2195983,-82.6909947,4.0,"Asian Fusion, Restaurants",4.5,2020,1.0
058a,Swann Ave Market,1021 W Swann Ave,RGTW,Tampa,33664,27.937522621700005,-82.4704477778,4.5,"Delis, Party & Event Planning, Restaurants, Food, Beer, Wine & Spirits, Event Planning & Services, Wineries, Arts & Entertainment, Coffee & Tea, Sandwiches, Wine Tasting Room",4.6,2020,1.0
0595,The Blind Tiger Cafe - Brandon Mall,459 Brandon Town Ctr Dr,W2W7,Brandon,33511,27.9325893,-82.3267556,4.5,"Coffee & Tea, Cafes, Breakfast & Brunch, Food, Restaurants, Acai Bowls, Kombucha",5.0,2020,1.0
05b6,Mad Chiller World,118 S Howard Ave,RGTW,Tampa,33664,27.9438170179,-82.4828436001,4.5,"Comfort Food, Coffee & Tea, Gelato, Bars, Food, Cocktail Bars, Pizza, Restaurants, Waffles, Tea Rooms, Nightlife",4.7,2020,1.0
05bd,Osmay Delivery,9543 E Fowler Ave,UGDG,Thonotosassa,33592,28.0541407317,-82.3335620016,3.5,"Chinese, Restaurants",4.8,2020,1.0
05c1,Cipresso Seminole Hard Rock  - Tampa,5223 N Orient Rd,RGTW,Tampa,33664,27.9916829247,-82.3723849843,4.0,"Restaurants, Italian",4.6,2020,1.0
05c4,Ballyhoo Grill,7604 Ehrlich Rd,RGTW,Tampa,33664,28.07824,-82.569894,3.5,"Restaurants, Seafood, Steakhouses",3.9,2020,1.0
05c7,Taste of Philly,7810 US 19,9LT4,Port Richey,34668,28.271076,-82.7239029,3.5,"Sandwiches, Restaurants, Cheesesteaks, Steakhouses, American (New)",3.0,2020,1.0
05e1,Cayman Cove,11742 Dale Mabry Hwy,RGTW,Tampa,33664,28.054991,-82.505955,2.5,"Tiki Bars, Sports Bars, American (New), Nightlife, Restaurants, Bars",1.0,2020,1.0
061e,Famous Greek Salads,"2508 N McMullen Booth Rd, Ste A",MCCU,Clearwater,33769,28.0125812,-82.711657,4.5,"Restaurants, Salad, Greek",4.9,2020,1.0
0635,Gigi's Pizza and Pasta,12505 Spring Hill Dr,I0WF,Spring Hill,34610,28.2080284856,-82.29079453255714,3.8,"Sandwiches, Restaurants, Italian, Pizza",3.9,2020,1.0
063e,Paul's Deli,851 E Klosterman Rd,3IGC,Tarpon Springs,34689,28.1236278,-82.742595,4.5,"Food, Restaurants, Delis, Convenience Stores, Sandwiches",5.0,2020,1.0
0642,Ristorante Acqua Alta,"2454 N Mcmullen Booth Rd, Ste 205",MCCU,Clearwater,33769,28.011964,-82.707883,4.5,"Italian, Pizza, Seafood, Restaurants, Nightlife, Vegetarian, Personal Chefs, Event Planning & Services, Gluten-Free, Bars, Wine Bars",4.8,2020,1.0
0650,Pal Campo Restaurant Tampa,9218 Anderson Rd,RGTW,Tampa,33664,28.0316861848,-82.5410863711,3.0,"Latin American, Puerto Rican, Caribbean, Restaurants",3.3,2020,1.0
067f,Le Peep,12852 W Hillsborough Ave,RGTW,Tampa,33664,28.0292076353,-82.638731801,4.5,"Restaurants, American (Traditional), Breakfast & Brunch",4.5,2020,1.0
068e,Ebisu Sushi Shack,5116 N Nebraska Ave,RGTW,Tampa,33664,27.9930419564,-82.4514531344,4.5,"Japanese, Sushi Bars, Restaurants",4.5,2020,1.0
0692,Taco Bar,29835 US Hwy 19 N,MCCU,Clearwater,33769,28.0433643,-82.73782040000002,4.0,"Restaurants, Mexican",3.5,2020,1.0
0697,Sushi Spot / Hibachi,"3665 E Bay Dr, Ste 146",LIFE,Largo,33778,27.915278,-82.749628,4.0,"Sushi Bars, Steakhouses, Thai, Restaurants",4.7,2020,1.0
06b0,Pomodoro Pizza & More,1076 E Brandon Blvd,W2W7,Brandon,33511,27.940435,-82.266256,4.0,"Restaurants, Italian, Pizza",4.7,2020,1.0
06cf,Zydeco Brew Werks,1902 E 7th Ave,RGTW,Tampa,33664,27.9604929,-82.437813,4.5,"Breweries, Food, Nightlife, Restaurants, Bars",4.2,2020,1.0
06d9,PJ's Oyster Bar,415 2nd St,SOWC,Indian Rocks Beach,33785,27.822218300000003,-82.80640475660377,3.5,"Bars, Seafood, Nightlife, Restaurants",3.7,2020,1.0
06e6,Lemon Grass Thai Kitchen,3635 W Kennedy Blvd,RGTW,Tampa,33664,27.92839841,-82.44285797,3.5,"Thai, Restaurants, Buffets",4.0,2020,1.0
06ec,Tampa Premium Outlets,2300 Grand Cypress Dr,1GQ7,Lutz,33559,28.1901243,-82.3912825,4.0,"Shopping Centers, Outlet Stores, Restaurants, Fashion, Shopping",3.5,2020,1.0
06fd,Brickhouse Pizza,1135 Missouri Ave N,LIFE,Largo,33778,27.926664,-82.789155,4.0,"Pizza, Food, Restaurants, Food Delivery Services",4.2,2020,1.0
074e,Hole In One,"1707 James L Redman Pkwy, Ste E",7QXG,Plant City,33567,27.9979018,-82.1228654,5.0,"Donuts, Food, Breakfast & Brunch, Restaurants",5.0,2020,1.0
0773,Oystercatchers,2900 Bayport Dr,RGTW,Tampa,33664,27.962275,-82.549347,4.0,"Cocktail Bars, Restaurants, American (Traditional), Bars, Seafood, Nightlife",3.8,2020,1.0
077d,Pinch a Taco,5005 S MacDill Ave,RGTW,Tampa,33664,27.8922537153,-82.4939839169,5.0,"Food, Mexican, Seafood, Barbeque, Cuban, Restaurants, Food Trucks",5.0,2020,1.0
078f,Rays Vegan Soul,169 North MLK St,9EV3,San Petersburgo,33730,27.773229,-82.64649,4.5,"Soul Food, Southern, Vegan, Restaurants",4.4,2020,1.0
0796,Clearwater Bagels,1871 Gulf To Bay Blvd,MCCU,Clearwater,33769,27.960322500000004,-82.7598496,3.5,"Restaurants, Bagels, Coffee & Tea, Food",4.2,2020,1.0
07b0,Sushi-Haru,3817 Northdale Blvd,RGTW,Tampa,33664,28.0943138,-82.5041143,3.5,"Japanese, Restaurants, Seafood, Sushi Bars",2.8,2020,1.0
07b3,The Chattaway,358 22nd Ave S,9EV3,San Petersburgo,33730,27.7483366,-82.6383665,4.0,"Restaurants, Venues & Event Spaces, Burgers, Event Planning & Services, American (Traditional)",3.9,2020,1.0
07cf,Sekushi,"2223 N Westshore Blvd, Unit B 213",RGTW,Tampa,33664,27.965655,-82.521205,3.5,"Japanese, Restaurants, Sushi Bars, Ramen",3.6,2020,1.0
07db,Wood Fired Pizza Wine Bar,2822 E Bearss Ave,RGTW,Tampa,33664,28.0810030241,-82.4276801889,4.0,"Nightlife, Food, Restaurants, Wine Bars, Bars, Salad, Italian, Desserts, Pizza",3.5,2020,1.0
07df,Ready Set Yo,409 Gulf Blvd,SOWC,Indian Rocks Beach,33785,27.8837761,-82.8503183,4.0,"Food, Juice Bars & Smoothies, Cuban, Cafes, Restaurants, Coffee & Tea, Bakeries, Ice Cream & Frozen Yogurt",3.9,2020,1.0
07ec,Forest Hills Brick Oven Pizza,905 W Linebaugh Ave,RGTW,Tampa,33664,28.0401835,-82.468059,4.0,"Restaurants, Pizza, Chicken Wings, Italian, Salad",3.8,2020,1.0
080e,Baton Roux,,RGTW,Tampa,33664,27.890814,-82.5023464,4.5,"Desserts, Restaurants, Cajun/Creole, Food Trucks, Food",4.0,2020,1.0
085a,Masa Sub and Grill With A Touch Of Mediterranean,2337 Seven Springs Blvd,3IHW,New Port Richey,34655,28.1933615,-82.6995764,4.0,"American (Traditional), Sandwiches, Greek, Pizza, Restaurants, Mediterranean",5.0,2020,1.0
085c,Wingstop,2776 E Fowler Ave,RGTW,Tampa,33664,27.98825332928687,-82.48924177019495,2.8,"American (New), Chicken Wings, Restaurants",2.1,2020,0.5
085f,The Nona Slice House,997 Main St,B8F4,Safety Harbor,34695,27.9909165,-82.6976582,4.5,"Restaurants, Pizza",4.7,2020,1.0
0864,Willie's Seafood,1912 Main St,HGEX,Valrico,33596,27.9464689217,-82.2571097109,4.0,"Seafood, Restaurants",3.9,2020,1.0
086a,Irish 31,1611 W Swann Ave,RGTW,Tampa,33664,27.92461229124193,-82.61200954569999,3.8,"Lounges, Restaurants, Sports Bars, Nightlife, Irish, Pubs, Bars",3.9,2020,1.0
0888,Sunrise Lanes,6393 Dr Martin Luther King Junior St N,9EV3,San Petersburgo,33730,27.8306031,-82.6459418,3.5,"Bars, American (Traditional), Venues & Event Spaces, Bowling, Event Planning & Services, Nightlife, Lounges, Restaurants, Active Life",5.0,2020,1.0
088a,Top Dog Grill,5114 US Hwy 19,3IHW,New Port Richey,34655,28.2333928,-82.7284271,4.5,"Sandwiches, Hot Dogs, Burgers, Restaurants, Fast Food",4.7,2020,1.0
0893,Yokohama Japanese Restaurant,760 W Lumsden Rd,W2W7,Brandon,33511,27.9248801,-82.2953336,4.0,"Restaurants, Japanese",3.3,2020,1.0
089d,Brocato's Sandwich Shop,5021 E Columbus Dr,RGTW,Tampa,33664,27.9665073,-82.3999526,4.0,"Sandwiches, Restaurants, Cuban, Delis",3.8,2020,1.0
08ac,4th Street Shrimp Store,1006 4th St N,9EV3,San Petersburgo,33730,27.7821024,-82.6388697,4.0,"Restaurants, Nightlife, Burgers, Beer Bar, Bars, Seafood",3.9,2020,1.0
08b1,Gigi's Cupcakes of Tampa,"3810 Neptune Ave., B-2",RGTW,Tampa,33664,27.92996,-82.5065759,4.0,"Food, Cafes, Bakeries, Cupcakes, Desserts, Local Flavor, Restaurants",4.6,2020,1.0
08b3,Gulf Coast Po' Boys,312 W Bay Dr,LIFE,Largo,33778,27.9169255,-82.7915448,4.5,"Southern, Cajun/Creole, Restaurants, Sandwiches",5.0,2020,1.0
08bc,Whiskey Wings,4013 Tampa Rd,96OP,Oldsmar,34677,28.10930034605263,-82.71376658521054,3.5,"Bars, Sports Bars, Nightlife, Chicken Wings, Restaurants",3.2,2020,1.0
08c8,Han Way,1135 Missouri Ave N,LIFE,Largo,33778,27.9266636,-82.789154,4.0,"Food, Noodles, Restaurants, Asian Fusion, Thai, Chinese, Poke",5.0,2020,1.0
08f1,Vernisage,1156 Jasper St,LIFE,Largo,33778,27.9315849,-82.789201,4.0,"Restaurants, Event Planning & Services, Beer, Wine & Spirits, Modern European, Nightlife, Bars, Caterers, Venues & Event Spaces, Russian, Food",4.0,2020,0.0
08f2,Amaretto Ristorante,2501 W Tampa Bay Blvd,RGTW,Tampa,33664,27.974451,-82.486513,5.0,"Italian, Restaurants",5.0,2020,1.0
0909,Scotty's Pizzeria,10614 Devco Dr,9LT4,Port Richey,34668,28.3113828,-82.6988686,3.5,"Restaurants, Pizza, Sandwiches, Salad",4.1,2020,1.0
090c,Piccola Italia Restaurant,37502 State Rt 54,PM56,Zephyrhills,33542,28.2300256,-82.19614779999999,4.0,"Italian, Pizza, Restaurants",4.6,2020,1.0
0917,Great Subs & More,1802 US Hwy 19,DVM9,Holiday,34691,28.184972,-82.739672,3.5,"Sandwiches, Restaurants",3.0,2020,1.0
0918,Parthenon Restaurant & Bakery,751 Dodecanese Blvd,3IGC,Tarpon Springs,34689,28.1553698,-82.761282,4.5,"Restaurants, Bakeries, Food",5.0,2020,1.0
091a,Rick's Warehouse Deli,"141 Stevens Ave, Ste 8",96OP,Oldsmar,34677,28.042223,-82.6567525,4.0,"Restaurants, Delis",5.0,2020,1.0
0930,Taqueria Mi Mexico,4205 N Armenia Ave,RGTW,Tampa,33664,27.9786611,-82.4843907,4.0,"Mexican, Restaurants",3.9,2020,1.0
0931,Fusion Street Eatery,422 Patricia Ave,L2T6,Dunedin,34698,28.0054937,-82.7759206,4.5,"Desserts, Burgers, Food, New Mexican Cuisine, Tacos, American (Traditional), Latin American, Sandwiches, Restaurants, Spanish, Mexican, Cuban",4.9,2020,1.0
093b,WonderWaffel - Tampa,14379 N Dale Mabry Hwy,RGTW,Tampa,33664,28.0782593,-82.5061629,5.0,"Restaurants, Waffles, Ice Cream & Frozen Yogurt, Coffee & Tea, Food",4.9,2020,1.0
0953,Green Gators Bar & Grill,9202 Anderson Rd,RGTW,Tampa,33664,28.0308319899,-82.540716799,1.5,"Nightlife, Sandwiches, Bars, American (Traditional), Restaurants, Pizza, American (New)",1.0,2020,1.0
095c,Stefano's,13023 Park Blvd,8ZKX,Seminole,33777,27.8441418,-82.8190166,4.0,"Restaurants, Italian",4.9,2020,1.0
0970,Central Pizza & Subs,6405 Central Ave,9EV3,San Petersburgo,33730,27.771197600000004,-82.7247354,3.0,"Pizza, Food Delivery Services, Food, Restaurants",4.0,2020,1.0
0982,Santo Espiritu Bakery,5537C Sheldon Rd,RGTW,Tampa,33664,27.9991326534,-82.5823689172,5.0,"Sandwiches, Latin American, Coffee & Tea, Colombian, Food, Bakeries, Restaurants",5.0,2020,1.0
0990,Cousins Maine Lobster Restaurant - Clearwater,"309 Coronado Dr, Ste B",MCCU,Clearwater,33769,27.973384,-82.8281759,3.5,"Seafood, Restaurants",3.7,2020,1.0
0996,JT's Roadhouse,13609 N Florida Ave,RGTW,Tampa,33664,28.0714330088,-82.4586099386,3.0,"Sandwiches, American (Traditional), Restaurants, Bars, Food, Nightlife, Beer, Wine & Spirits",4.0,2020,1.0
09a2,Bula Kafe,2500 5th Ave N,9EV3,San Petersburgo,33730,27.7771585,-82.6675529,4.0,"Nightlife, Lounges, Coffee & Tea, Cafes, Bars, Restaurants, Food",4.3,2020,1.0
09a8,Bon Appetit Restaurant,148 Marina Plz,L2T6,Dunedin,34698,28.0132627,-82.7932856,3.5,"American (New), Restaurants, Breakfast & Brunch, Venues & Event Spaces, Event Planning & Services",3.4,2020,1.0
09b6,Berry Boss Acai,4615 4th St N,9EV3,San Petersburgo,33730,27.8143294,-82.6382886,4.5,"Juice Bars & Smoothies, Coffee & Tea, Acai Bowls, Food, Restaurants, Vegan",5.0,2020,1.0
09d5,Siam Thai & Sushi,"5460 E Bay Dr, Ste 100",MCCU,Clearwater,33769,27.917545,-82.730503,4.5,"Thai, Sushi Bars, Restaurants, Japanese",4.4,2020,1.0
09db,Lenny's Restaurant,21220 US Hwy 19 N,MCCU,Clearwater,33769,27.965345900000003,-82.7305416,4.5,"Delis, American (Traditional), Breakfast & Brunch, Restaurants",4.5,2020,1.0
09ea,China Latina,3715 E Busch Blvd,RGTW,Tampa,33664,28.0322549,-82.4170166,3.0,"Caribbean, Spanish, Restaurants, Chinese, Puerto Rican, Latin American",4.0,2020,1.0
09f6,Lolita's Wine Market,16 18th St S,9EV3,San Petersburgo,33730,27.7707253046,-82.6575905429,4.5,"Bars, Restaurants, Nightlife, Wine Bars, Breakfast & Brunch, American (Traditional), Tapas/Small Plates",4.8,2020,1.0
0a42,Bel Mar Bar And Grill,3501 S Manhattan Ave,RGTW,Tampa,33664,27.911361100000004,-82.5182322,4.5,"Sandwiches, American (Traditional), Nightlife, Bars, American (New), Restaurants",3.7,2020,1.0
0a59,Mercel's Bake Shop,8500 49th St N,SJ01,Pinellas Park,33782,27.8493623,-82.7006727,3.0,"Restaurants, Filipino",5.0,2020,1.0
0a74,S & S Tacos and Stuff,"701 S US Hwy 41, Ste A",D8OX,Ruskin,33570,27.7127238,-82.4346134,2.5,"Mexican, Restaurants",1.7,2020,1.0
0a7a,Terra Mar Brazilian Steakhouse,6715 49th St,SJ01,Pinellas Park,33782,27.833168,-82.699316,4.0,"Restaurants, Steakhouses, Buffets, Brazilian",3.9,2020,1.0
0a82,Sims Smoked Barbecue & Seafood,6010 County Rd 579,JIN0,Seffner,33584,28.0024129,-82.3027713129,4.5,"Chicken Wings, Food, Restaurants, Food Trucks, Barbeque, Seafood, American (New)",4.7,2020,1.0
0a88,Taco Rey,1818 James Redman Pkwy,7QXG,Plant City,33567,27.995983,-82.1214601,3.0,"Mexican, Restaurants",5.0,2020,1.0
0a8e,Widow Fletcher's,4927 US Hwy 19,3IHW,New Port Richey,34655,28.2308899966,-82.7313399687,3.0,"Restaurants, Seafood, American (Traditional)",3.0,2020,1.0
0a9a,Neighborhood Joe,2609 Dr Mlk Jr St N,9EV3,San Petersburgo,33730,27.7959993,-82.6465446,4.5,"Vegan, Food, Coffee & Tea, Restaurants, Sandwiches, Kombucha, Breakfast & Brunch",5.0,2020,1.0
0aa6,Bros Pizzeria,547 S Fort Harrison Ave,MCCU,Clearwater,33769,27.9598298744,-82.79976733319998,4.0,"Pizza, Restaurants, Italian",3.2,2020,1.0
0aaf,Omi's Grill,2630 W Waters Ave,RGTW,Tampa,33664,28.0250303,-82.4869215,4.0,"Latin American, Food Trucks, Food, Restaurants",5.0,2020,1.0
0ac5,Features Brewpub,9390 Theater Dr,EPNS,Gibsonton,33534,27.848612,-82.348678,4.0,"Restaurants, Gastropubs",4.3,2020,1.0
0adc,Open Fire Grilled Brazilian,,RGTW,Tampa,33664,28.0684157,-82.5564559,5.0,"Food Trucks, Food, Restaurants, Event Planning & Services, Party & Event Planning, Brazilian",5.0,2020,1.0
0ae3,Harold Seltzer's Steak House,3500 Tyrone Blvd N,9EV3,San Petersburgo,33730,27.8031306,-82.7449549,3.5,"Restaurants, Steakhouses, American (Traditional), Seafood",3.9,2020,1.0
0aec,Dunedin Fish Market & Olde Bay Cafe,51 Main St,L2T6,Dunedin,34698,28.0125092082,-82.79229531909999,4.0,"Restaurants, Food, Seafood Markets, Seafood, Specialty Food",4.1,2020,1.0
0b07,Cafe Quiquiriqui,1412 E 7th Ave,RGTW,Tampa,33664,27.9604045708,-82.4438500777,4.0,"Salad, Breakfast & Brunch, Coffee & Tea, Food, Sandwiches, Restaurants",4.9,2020,1.0
0b0f,Asian Pearl,2551 Drew St,MCCU,Clearwater,33769,27.966953,-82.731571,4.0,"Noodles, Seafood, Chinese, Restaurants",4.1,2020,1.0
0b1f,Aleida's Kitchen,528 Oakfield Dr,W2W7,Brandon,33511,27.934126,-82.29162299999999,4.5,"Restaurants, Caribbean, Colombian, Dominican, Latin American",4.9,2020,1.0
0b23,Pam's Country Restaurant,6602 Ridge Rd,9LT4,Port Richey,34668,28.2792627,-82.7054715,4.5,"Restaurants, Breakfast & Brunch, American (Traditional)",5.0,2020,1.0
0b2a,Grecian Island Restaurant,223 E Davis Blvd,RGTW,Tampa,33664,27.9268595,-82.4531777,3.5,"Breakfast & Brunch, Greek, Restaurants",5.0,2020,1.0
0b41,Fuzzy's Sports & Grill,1270 S Highland Ave,MCCU,Clearwater,33769,27.9504232,-82.7755413,2.5,"Restaurants, American (New)",4.0,2020,1.0
0b4c,Sonny's BBQ,30503 US Hwy 19 North,IKXB,Palm Harbor,34685,28.04856734918889,-82.6801176546361,3.3,"Event Planning & Services, Caterers, American (New), Restaurants, Barbeque",3.4,2020,1.0
0b4d,Wing Box,,RGTW,Tampa,33664,27.9552692,-82.4563199,4.0,"Food Trucks, Restaurants, Food, Chicken Wings, Waffles",4.7,2020,1.0
0b75,Ruby Tuesday,10509 Gibsonton Drive,TC12,Riverview,33579,28.05759519545455,-82.60967225454546,2.8,"Burgers, Restaurants, American (Traditional)",3.2,2020,1.0
0b82,Brandon Burgers,6022 Winthrop Town Centre Ave,TC12,Riverview,33579,27.909374414476662,-82.31331645217666,3.2,"Burgers, Restaurants, American (Traditional), Fast Food, Hot Dogs, Salad",3.3,2020,1.0
0b84,Five Guys,2689 Gulf To Bay Blvd,MCCU,Clearwater,33769,27.969084985682223,-82.54985561622,3.5,"Burgers, Fast Food, Restaurants",3.1,2020,1.0
0b8b,Sekushi on the Beach,524 Mandalay Ave,EXHF,Clearwater Beach,33767,27.9832869,-82.8267773,4.5,"Ramen, Japanese, Asian Fusion, Pan Asian, Restaurants, Sushi Bars, Chinese",4.5,2020,1.0
0bbf,Bellissimo Italian Eatery,"13220 S Belcher Rd, Ste 20",LIFE,Largo,33778,27.8931018,-82.7466404,4.0,"Nightlife, Italian, Restaurants, Bars, Seafood",3.7,2020,1.0
0bc5,Taste of India,902 Brandon Blvd E,W2W7,Brandon,33511,27.9381235,-82.2710117,3.5,"Pakistani, Indian, Halal, Vegetarian, Restaurants, Vegan",3.7,2020,1.0
0bc8,Michelle Faedo's Tampeño Cuisine,601 E Kennedy Blvd,RGTW,Tampa,33664,27.9483566,-82.4548727,4.5,"Latin American, Restaurants, Cuban, Local Flavor",3.7,2020,1.0
0bdc,AL Madina,662 Oakfield Dr,W2W7,Brandon,33511,27.935097168500004,-82.2930896123,5.0,"Delis, Middle Eastern, Food, Grocery, Restaurants",4.2,2020,1.0
0be7,Jesse's Steak and Seafood,524 W Brandon Blvd,W2W7,Brandon,33511,27.9381358,-82.2920736,4.0,"Sandwiches, Steakhouses, Restaurants, Seafood",3.9,2020,1.0
0bee,Bahia Tacos,808 S Dale Mabry Hwy,RGTW,Tampa,33664,27.9351794,-82.5053278,4.0,"Tacos, Mexican, Restaurants, New Mexican Cuisine, Latin American, Colombian",4.4,2020,1.0
0c10,Dave & Buster's,10209 Estuary Lakes Dr,RGTW,Tampa,33664,27.9357277241,-82.33441769270001,2.5,"Arts & Entertainment, Bars, Arcades, American (Traditional), Restaurants, Sports Bars, Nightlife",2.1,2020,0.5
0c7b,TGI Fridays,11705 West Hillsborough Ave,RGTW,Tampa,33664,28.0164666,-82.5028245,2.7,"Nightlife, Restaurants, American (Traditional), Bars, Sports Bars, Burgers",2.3,2020,1.0
0c7d,The Brass Tap,10047 N Dale Mabry Hwy,RGTW,Tampa,33664,28.0256065,-82.51690233333333,3.6,"Bars, Restaurants, Sports Bars, Beer Bar, Music Venues, Salad, Nightlife, Arts & Entertainment, Pubs, Burgers, American (New), Chicken Wings",4.1,2020,1.0
0c8c,Burnin Barber-Que And More,7917 Flower Ave,RGTW,Tampa,33664,27.8946903,-82.3670353,4.0,"Soul Food, Seafood, Barbeque, Restaurants",4.2,2020,1.0
0cab,Chef Li,"4013 Tampa Rd, Ste 16",96OP,Oldsmar,34677,28.0371804259,-82.6572794473,4.0,"Chinese, Asian Fusion, Restaurants",4.4,2020,1.0
0cd6,City Girl Seafood,10341 State Road 52,Y3QW,Hudson,34669,28.3318411534,-82.6430148067,4.5,"Restaurants, Seafood Markets, Seafood, Specialty Food, Food",4.8,2020,1.0
0cd7,Carmine's Restaurant and Bar,1802 E 7th Ave,RGTW,Tampa,33664,27.9604618,-82.4390128,3.0,"Italian, Restaurants, Bars, Nightlife, Sandwiches, Spanish, Cuban",3.2,2020,1.0
0ce0,Aripeka Stone Crab Company,3080 Sunset Vista Dr,I0WF,Spring Hill,34610,28.4355146899,-82.6666789502,5.0,"Food, Seafood Markets, Boating, Food Stands, Specialty Food, Health Markets, Organic Stores, Restaurants, Fishing, Active Life",4.9,2020,1.0
0ce5,Original Pizza II,6175 Park Blvd,SJ01,Pinellas Park,33782,27.8396139,-82.719561,4.5,"Pizza, Restaurants, Cheesesteaks, Italian",5.0,2020,1.0
0cef,E Sushi Odessa,13537 State Rd 54,L60Q,Odessa,33556,28.1958513945,-82.5917008406,4.0,"Restaurants, Sushi Bars, Japanese, Bars, Beer Bar, Nightlife, Steakhouses",4.4,2020,1.0
0cfb,Asher Amens African Cafe,"1412 W Waters Ave, Ste 107",RGTW,Tampa,33664,28.0250308269,-82.4736129187,3.0,"Cafes, African, Restaurants, Desserts, Food",2.0,2020,1.0
0d0c,Taco Bus,913 E Hillsborough Ave,RGTW,Tampa,33664,27.94566141282553,-82.58380264413758,3.3,"Mexican, Restaurants, Ethnic Food, Food, Vegetarian, Food Trucks, Street Vendors, Specialty Food",3.0,2020,1.0
0d0d,Romano Restaurant & Bar,906 Robertson St W,W2W7,Brandon,33511,27.9364886315,-82.2967212983,4.0,"Greek, Restaurants, Mediterranean, Italian",2.7,2020,1.0
0d31,Sunflower Cafe,3452 Lithia Pinecrest Rd,HGEX,Valrico,33596,27.890834,-82.2411144,4.5,"Restaurants, Sushi Bars, Food",4.6,2020,1.0
0d43,La Cubanita Cafe,723-A W Lumsden Rd,W2W7,Brandon,33511,27.9218886856,-82.2958214626,4.0,"Cafes, Spanish, Cuban, Restaurants",2.2,2020,1.0
0d50,Pj Dolan's Irish Pub & Grille,2836 E Bearss Ave,RGTW,Tampa,33664,28.0812487035,-82.4270397864,3.5,"Irish, American (New), Restaurants",4.7,2020,1.0
0d57,Fresh Country Cafe,5518 Gall Blvd,PM56,Zephyrhills,33542,28.238033,-82.183557,3.5,"Cuban, Restaurants, Southern",4.4,2020,1.0
0d84,Lien Hoa Oriental Market,3692 W Waters Ave,RGTW,Tampa,33664,28.024818145,-82.5034525314,3.5,"Vietnamese, Home Services, Grocery, Restaurants, Real Estate, Food, Homeowner Association, International Grocery",5.0,2020,1.0
0d99,Sergio's Restaurant & Pizzeria,35233 State Rd 54,PM56,Zephyrhills,33542,28.2248182,-82.2341572,3.5,"Restaurants, Pizza, Italian",3.0,2020,1.0
0da3,Watervue Grille,700 Harbour Post Dr,RGTW,Tampa,33664,27.9399467,-82.4514669,4.0,"Event Planning & Services, Seafood, American (New), Restaurants, Venues & Event Spaces",3.8,2020,1.0
0dd4,Kaffeina Coffee,3533 Little Rd,3IHW,New Port Richey,34655,28.2106643,-82.6664771,5.0,"Coffee & Tea, Food, Restaurants, Sandwiches, Breakfast & Brunch",5.0,2020,1.0
0ddc,Kang's Garden,12221 W Linebaugh Ave,RGTW,Tampa,33664,28.0567160147,-82.6260354845,3.5,"Restaurants, Chinese",4.2,2020,1.0
0dfa,Ybor City Wine Bar,1600 E 8th Ave,RGTW,Tampa,33664,27.960469,-82.441679,4.5,"Nightlife, Beer, Wine & Spirits, Food, Wine Bars, American (New), Bars, Restaurants",4.3,2020,1.0
0e17,Bearss Tavern + Tap,2802 E Bearss Ave,RGTW,Tampa,33664,28.080771722000005,-82.4280881,3.5,"Gastropubs, Nightlife, American (New), Sports Bars, Bars, Breakfast & Brunch, Beer Bar, German, Restaurants, Modern European",2.7,2020,1.0
0e25,Hunter's Green Country Club,18101 Longwater Run Drive,RGTW,Tampa,33664,28.1350127,-82.3513452,4.0,"Real Estate, Tennis, Social Clubs, Golf, Home Services, Venues & Event Spaces, Active Life, Arts & Entertainment, Country Clubs, Swimming Pools, Restaurants, Event Planning & Services",5.0,2020,1.0
0e48,Mr. C's Grilled Cheese,,RGTW,Tampa,33664,28.0771075,-82.5023464,4.5,"Food, Event Planning & Services, Food Trucks, Sandwiches, Caterers, Restaurants",4.6,2020,1.0
0e4b,Italia Mia,1165 62nd Ave N,9EV3,San Petersburgo,33730,27.829617,-82.650277,4.0,"Pizza, Italian, Restaurants",3.7,2020,1.0
0e4d,Bruegger's Bagels,501 E Kennedy Blvd,RGTW,Tampa,33664,27.9477318699,-82.4558486,4.0,"Restaurants, Breakfast & Brunch, Bagels, Sandwiches, Food",4.8,2020,1.0
0e58,Lee House,909 W Brandon Blvd,W2W7,Brandon,33511,28.10400565217392,-82.45453315217392,2.4,"Restaurants, Dim Sum, Chinese, Vietnamese",2.7,2020,1.0
0e6c,Ginger's Cafe,,HGEX,Valrico,33596,27.9291055,-82.2474648,5.0,"Food, Food Trucks, Restaurants, Sandwiches, Korean",5.0,2020,1.0
0e7f,Pho 1,3665 East Bay Dr,LIFE,Largo,33778,27.9150364,-82.7491266,4.0,"Restaurants, Vietnamese",3.6,2020,1.0
0e85,Wakamole Truly Mexican,23197 US Hwy 19 N,MCCU,Clearwater,33769,27.9835808,-82.7290453,4.5,"Food, Street Vendors, Food Trucks, Food Delivery Services, Caterers, Mexican, Event Planning & Services, Restaurants, Party & Event Planning",5.0,2020,1.0
0e9f,Jubao Palace Noodle Bar - Seminole Hard Rock Tampa,5225 N Orient Rd,RGTW,Tampa,33664,27.992914,-82.372179,4.0,"Food, Vietnamese, Chinese, Noodles, Restaurants",4.2,2020,1.0
0ec9,Johnny's Mediterranean Pizza & Restaurant,3001 28th St N,9EV3,San Petersburgo,33730,27.7995707,-82.6710509,3.5,"Automotive, Gas Stations, Breakfast & Brunch, American (Traditional), Pizza, Restaurants",5.0,2020,1.0
0ede,Fresh Harvest Buffet,5223 Orient Rd,RGTW,Tampa,33664,27.992803,-82.37286,3.5,"Breakfast & Brunch, Restaurants, Buffets",3.0,2020,1.0
0ee1,Hot Rod Smoke BBQ,9218 Gibsonton Dr,EPNS,Gibsonton,33534,27.8501296,-82.353602,3.5,"Barbeque, Caterers, Event Planning & Services, Food Trucks, Restaurants, Food",5.0,2020,1.0
0ee6,Alina Cafe,9721 66th St N,SJ01,Pinellas Park,33782,27.8604482,-82.7282655,4.0,"Thai, Vietnamese, Laotian, Restaurants",4.0,2020,1.0
0ee7,Kiwami Ramen and Sushi,10262 Causeway Blvd,RGTW,Tampa,33664,27.9236767,-82.3408034,4.0,"Japanese, Sushi Bars, Restaurants, Ramen",4.1,2020,1.0
0ef7,GameTime,1600 E 8th Ave,RGTW,Tampa,33664,27.9611161408,-82.4409069127,3.0,"Event Planning & Services, Sports Bars, Arts & Entertainment, Venues & Event Spaces, Books, Mags, Music & Video, Amusement Parks, American (Traditional), Shopping, Restaurants, Videos & Video Game Rental, Active Life, Bars, Arcades, Nightlife",3.1,2020,1.0
0f28,Frank's Restaurant,15925 US 19,Y3QW,Hudson,34669,28.3889283786,-82.6708970591,3.5,"Breakfast & Brunch, Nightlife, Restaurants, Bars, American (Traditional)",3.4,2020,1.0
0f60,BT To Go,3215 S MacDill Ave,RGTW,Tampa,33664,27.907385890775,-82.607103317465,4.2,"Food, Specialty Food, Ethnic Food, Vietnamese, Restaurants",4.2,2020,1.0
0f6c,New England's Ale House Grille,3419 Alt Us 19,IKXB,Palm Harbor,34685,28.1011583,-82.7721868,3.0,"Burgers, Restaurants, Diners, Sports Bars, American (Traditional), Seafood, Bars, Comfort Food, American (New), Nightlife",1.0,2020,0.5
0f73,The Haus Coffee Shop,"3690 E Bay Dr, Ste Y",LIFE,Largo,33778,27.917451,-82.7491687,4.5,"Delis, Coffee & Tea, Beer, Wine & Spirits, Food, Bagels, Restaurants, Sandwiches, Cafes, Bakeries",4.8,2020,1.0
0fa7,Kings Fried Chicken,2216 34th St S,9EV3,San Petersburgo,33730,27.7477252,-82.6790039,3.5,"Restaurants, Chicken Shop, American (Traditional), Fast Food, Seafood",3.4,2020,1.0
0fd3,Riverside Seafood and Restaurant,5347 US-301,PM56,Zephyrhills,33542,27.951206748,-82.46542407000001,4.0,"Seafood, Specialty Food, Seafood Markets, Restaurants, Food",4.3,2020,1.0
0fe5,Krispy Krab Clearwater ,1423 Betty Ln N,MCCU,Clearwater,33769,27.91830146,-82.7464226755,3.5,"Restaurants, Seafood",2.9,2020,1.0
0fed,Noble Rice,807 W Platt St,RGTW,Tampa,33664,27.9418113,-82.4681587528,4.0,"Restaurants, Sushi Bars, Izakaya, Tapas/Small Plates, Japanese, Ramen",3.8,2020,1.0
1006,Yogurtology,3017 Gandy Blvd,RGTW,Tampa,33664,27.8939095,-82.4936263,4.0,"Food, Restaurants, Ice Cream & Frozen Yogurt",4.0,2020,1.0
102b,Towne House Pizza & Restaurant,9215 State Rd 52,Y3QW,Hudson,34669,28.331477,-82.662369,3.0,"Restaurants, Italian, Pizza, Caterers, Event Planning & Services, Food, Specialty Food, Pasta Shops",1.0,2020,0.5
104c,Zoes Kitchen,15028 N Dale Mabry Hwy,RGTW,Tampa,33664,27.99719022272728,-82.51611910454545,4.3,"Kebab, Mediterranean, Greek, Restaurants, Sandwiches",3.5,2020,1.0
1052,Salt Rock Tavern,3689 Tampa Rd,96OP,Oldsmar,34677,28.05017751538461,-82.68337461153845,3.9,"Seafood, Nightlife, Restaurants, Comfort Food, Bars, American (New), Sports Bars",4.1,2020,1.0
107c,Taqueria San Martin,4000 County Rd 579,JIN0,Seffner,33584,28.0175255,-82.3024927,4.0,"Food Trucks, Food, Mexican, Restaurants",3.3,2020,1.0
10f3,Jo Jo’s Italian Diner,217 S Pinellas Ave,3IGC,Tarpon Springs,34689,28.1446656555,-82.7564997768,4.5,"Italian, Soup, Salad, Restaurants",4.6,2020,1.0
10f9,Susie's Grill,1252 Mariner Blvd,I0WF,Spring Hill,34610,28.4523530189,-82.5389819857,3.5,"Restaurants, American (Traditional), Nightlife, Bars",2.9,2020,1.0
110d,Biryani Bowl -Tampa,5833 Memorial Hwy,RGTW,Tampa,33664,27.984698,-82.568946,3.0,"Restaurants, Food, Indian",5.0,2020,1.0
112f,Pizza Haven,122 E Brandon Blvd,W2W7,Brandon,33511,27.9386606155,-82.2847137998,4.5,"Restaurants, Pizza",4.8,2020,1.0
1133,Universal Fine Wine and Spirits,1542 US Hwy 19,DVM9,Holiday,34691,28.181578,-82.7396451,3.5,"Pubs, Beer, Wine & Spirits, Nightlife, Restaurants, Bars, Lounges, Cocktail Bars, Food",3.0,2020,1.0
1148,Paul's Chicago Pizza,11002 4th St N,9EV3,San Petersburgo,33730,27.91219687139783,-82.66553293009348,4.3,"Pizza, Restaurants, Italian",4.1,2020,1.0
1158,Sparkman Wharf,615 Channelside Dr,RGTW,Tampa,33664,27.9433929598,-82.4466647219,4.0,"Food, Nightlife, Bars, Cocktail Bars, Beer, Wine & Spirits, Restaurants, Lawn Services, Food Court, Landscaping, Beer Gardens, Shopping, Real Estate, Shopping Centers, Home Services, Shared Office Spaces, Arts & Entertainment",3.8,2020,1.0
1164,Benedict's Family Restaurant,7048 Park Blvd N,SJ01,Pinellas Park,33782,27.95461659333333,-82.76974475777777,4.3,"American (Traditional), Restaurants, Breakfast & Brunch, Greek",4.0,2020,1.0
116e,The Nutrition Factory,3251 W Hillsborough Ave,RGTW,Tampa,33664,27.9976512,-82.4960872,4.0,"Juice Bars & Smoothies, Restaurants, Vitamins & Supplements, Vegetarian, Food, Salad, American (New), Specialty Food, Gluten-Free, Poke, Event Planning & Services, Caterers, Health Markets, Shopping",4.2,2020,1.0
117c,Frenchys South Beach Cafe,351 S Gulfview Blvd,EXHF,Clearwater Beach,33767,27.971642,-82.829353,3.5,"Restaurants, Cafes, Sandwiches, Salad, Seafood",4.1,2020,1.0
1187,Sa Ri One Korean Restaurant,3940 W Cypress St,RGTW,Tampa,33664,27.951953,-82.5091776,4.0,"Restaurants, Korean",4.4,2020,1.0
118a,Windward Bar and Grill,282 Windward Passage,EXHF,Clearwater Beach,33767,27.977604890900004,-82.8174431708,4.5,"American (Traditional), Bars, Cafes, American (New), Restaurants, Cocktail Bars, Burgers, Nightlife",5.0,2020,1.0
11b4,Al-Aqsa Grocery,10805 N 56th St,RGTW,Tampa,33664,28.046036,-82.393091,3.0,"Halal, Grocery, Food, Restaurants",2.5,2020,1.0
11b9,Shephard's Beach Resort,619 S Gulfview Blvd,EXHF,Clearwater Beach,33767,27.96718,-82.82716,3.0,"Hotels & Travel, Bars, American (Traditional), Restaurants, Event Planning & Services, Nightlife, Hotels, Resorts",2.5,2020,1.0
11c7,Another Broken Egg Cafe,4041 S Dale Mabry Hwy,RGTW,Tampa,33664,27.95989142857143,-82.69132497257144,4.2,"Cafes, American (Traditional), Breakfast & Brunch, Restaurants",4.3,2020,1.0
11d6,Luv Child,516 South Howard Ave,RGTW,Tampa,33664,27.9387699,-82.4827424,4.5,"Cafes, Coffee & Tea, Food, Latin American, Mexican, Burgers, Nightlife, Bars, Cuban, Cocktail Bars, Restaurants",4.3,2020,1.0
11dd,Donnelly's Deli,2112 Mariner Blvd,I0WF,Spring Hill,34610,28.4631412,-82.54029090000002,4.5,"Restaurants, Delis",4.4,2020,1.0
11e1,Snappers Grill & Comedy Club,36657 US Hwy 19 N,IKXB,Palm Harbor,34685,28.1056944,-82.7391199,3.5,"Nightlife, American (Traditional), Restaurants, Sushi Bars, American (New), Comedy Clubs",2.9,2020,1.0
11e9,Tijuana Flats - Fowler,2782 E Fowler Ave,RGTW,Tampa,33664,28.055805,-82.427633,4.0,"Mexican, Restaurants, Tex-Mex",2.2,2020,0.5
11ee,Hungry Howie's Pizza & Subs,"6989 Seminole Blvd, Ste 6",8ZKX,Seminole,33777,27.994589701521875,-82.49398101751093,2.9,"Italian, Restaurants, Chicken Wings, Pizza, Sandwiches",3.1,2020,1.0
1207,Tubby's Q and Smokehouse,5740 7th St,PM56,Zephyrhills,33542,28.169876,-82.30967046666666,4.3,"Restaurants, Barbeque",3.7,2020,1.0
120c,Joe's New York Style Pizzeria & Restaurant,2745 E Bay Dr,LIFE,Largo,33778,27.9164053583,-82.7584963998,3.5,"Restaurants, Chicken Wings, Pizza, Italian",4.0,2020,1.0
1241,Church's Chicken,2301 N 50th St N,RGTW,Tampa,33664,27.9071916625,-82.54517401875,1.7,"Fast Food, Restaurants, Chicken Shop, Breakfast & Brunch, Chicken Wings, Barbeque",1.9,2020,0.5
1249,Hungry Howie's,"6328 Park Blvd, Ste 2",SJ01,Pinellas Park,33782,27.8386782,-82.722951,2.0,"Chicken Wings, Restaurants, Desserts, Pizza, Sandwiches, Italian, Food",2.0,2020,1.0
1257,Restaurant BT,2507 S MacDill Ave,RGTW,Tampa,33664,27.9226374,-82.4939091,4.5,"American (New), Vietnamese, French, Restaurants",5.0,2020,1.0
1264,Grind House Bar & Grill,"1500 Mcmullen Booth Rd, Ste A13",MCCU,Clearwater,33769,27.982223,-82.7109979,3.5,"American (New), Bars, Nightlife, British, Restaurants, Karaoke, Pubs",1.0,2020,1.0
126a,Winghouse - New Port Richey,6515 US Hwy 19,3IHW,New Port Richey,34655,28.2527517,-82.7282655,3.0,"Chicken Wings, Restaurants, Pubs, American (Traditional), Bars, Nightlife",2.0,2020,0.5
12ab,Local Brewing,35631 US-19,IKXB,Palm Harbor,34685,28.0960115,-82.7379594,3.0,"Pubs, Music Venues, Bars, American (New), Nightlife, Gastropubs, Restaurants, Food, Breweries, Arts & Entertainment",3.0,2020,1.0
12d5,Chef Thai & Sushi,"1155 S Dale Mabry Hwy, Ste 22",RGTW,Tampa,33664,27.932611800000004,-82.5063215,3.5,"Restaurants, Sushi Bars, Thai",4.3,2020,1.0
12e6,Asian Chao,2300 Grand Cypress Dr,1GQ7,Lutz,33559,28.1908468589,-82.3906420661,3.0,"Asian Fusion, Restaurants",2.8,2020,0.5
1305,Ryan's Meat Market & Deli,7925 38th Ave N,9EV3,San Petersburgo,33730,27.8066096123,-82.7481979877,4.0,"Meat Shops, Specialty Food, Food, Restaurants, Delis",3.4,2020,1.0
1310,Your Pie - Brandon,125 E Bloomingdale Ave,W2W7,Brandon,33511,27.8928659,-82.2841386,4.5,"Pasta Shops, Specialty Food, Food, Salad, Pizza, Restaurants",4.3,2020,1.0
131c,Turnpike Rest Stop,3429 Deltona Blvd,I0WF,Spring Hill,34610,28.48484,-82.57565,4.5,"Chicken Wings, Hot Dogs, Breakfast & Brunch, Delis, Sandwiches, Restaurants",4.4,2020,1.0
132c,3 Dot Dash,6203 N Florida Ave,RGTW,Tampa,33664,28.003594178,-82.45911,4.5,"Restaurants, Vegetarian, American (Traditional), Vegan",4.7,2020,1.0
1357,Green Lemon,915 S Howard Ave,RGTW,Tampa,33664,27.9346234824,-82.4831569976,4.5,"Food, Tapas Bars, Gluten-Free, Tacos, Restaurants, Latin American, Tapas/Small Plates, Breakfast & Brunch, Bars, Mexican, Event Planning & Services, Caterers, Nightlife",4.3,2020,1.0
135d,Crabby's Bar & Grill,333 S Gulfview Blvd,EXHF,Clearwater Beach,33767,27.9721033763,-82.8292703928,3.5,"Beer, Wine & Spirits, Seafood, Breakfast & Brunch, American (Traditional), Food, Bars, Restaurants, Nightlife",4.0,2020,1.0
1393,Harvest Station,2712 W Waters Ave,RGTW,Tampa,33664,28.024999999999995,-82.48781,4.5,"Specialty Food, Restaurants, Juice Bars & Smoothies, Food, Fruits & Veggies, Salad",3.7,2020,1.0
13af,Renzo's Carrollwood,14445 N Dale Mabry Hwy,RGTW,Tampa,33664,28.079403,-82.506143,4.0,"Steakhouses, Caterers, Brazilian, Food, Latin American, American (Traditional), Event Planning & Services, Argentine, Butcher, Restaurants",3.1,2020,1.0
13ba,Tacos 4G,4349 W Waters Ave,RGTW,Tampa,33664,28.0257793,-82.516799,4.0,"Tacos, Restaurants, Mexican, Salad, Soup",4.0,2020,1.0
13d9,ABC Pizza House,1242 W Hillsborough Ave,RGTW,Tampa,33664,27.99554,-82.4743805,4.0,"Restaurants, Pizza",4.2,2020,1.0
13e3,La Botana Antojos Agridulces,"11130 US Hwy 41 S, Ste 101",EPNS,Gibsonton,33534,27.8403772,-82.3813343,4.0,"Mexican, Desserts, Food, Restaurants",4.0,2020,1.0
13e8,The Rusty Lyon,923 Broadway,L2T6,Dunedin,34698,28.0139357,-82.7895115,4.0,"Cocktail Bars, American (Traditional), Bars, Restaurants, Nightlife, Beer Bar, Food, Beer, Wine & Spirits",4.1,2020,1.0
13f1,Elite Donuts,3824 Sun City Center Blvd,R17I,Sun City Center,33573,27.7150952,-82.3743668,4.0,"Food, Donuts, Sandwiches, Restaurants, Juice Bars & Smoothies",5.0,2020,1.0
13f5,PDQ,4100 George J Bean Pkwy,RGTW,Tampa,33664,27.9767745,-82.5374233,3.5,"Burgers, Restaurants, Chicken Shop, Fast Food, Sandwiches",3.0,2020,1.0
1403,Bayway Country Store and Butcher Shop,5401 Leeland St S,9EV3,San Petersburgo,33730,27.766641923529413,-82.64129927058823,4.4,"Convenience Stores, Butcher, Food, Beer, Wine & Spirits, Delis, Restaurants",4.4,2020,1.0
1427,Hip Hop Crab,4924 E Busch Blvd,RGTW,Tampa,33664,28.0335805,-82.4042033,2.5,"Sports Bars, Restaurants, Seafood, Nightlife, Southern, Bars, Lounges",3.2,2020,1.0
142f,Slyce - Indian Rocks Beach,311 Gulf Blvd,SOWC,Indian Rocks Beach,33785,27.8812318,-82.8501584,4.0,"Pizza, Restaurants, Wine Bars, Arts & Entertainment, Nightlife, Music Venues, Bars, Beer Bar, Italian",4.1,2020,1.0
1434,Kokomos Bar & Grille,1201 Gulf Blvd,EXHF,Clearwater Beach,33767,27.9535482,-82.8283397,4.5,"Nightlife, Restaurants, American (Traditional), Bars",5.0,2020,1.0
1442,Dooriban,5600 66th St N,9EV3,San Petersburgo,33730,27.8230157,-82.7288601,4.5,"Restaurants, Korean",4.7,2020,1.0
1448,Mickey Quinn's Pub,13071 Park Blvd,8ZKX,Seminole,33777,27.8449335,-82.8193534,4.0,"Nightlife, Restaurants, Pubs, Bars, Irish Pub",5.0,2020,1.0
145c,Thai Ruby,15319 Amberly Dr,RGTW,Tampa,33664,28.088240400000004,-82.4047290822,4.0,"Restaurants, Thai, Asian Fusion",4.5,2020,1.0
147a,Zeko's Mediterranean Grill,3609 E Busch Blvd,RGTW,Tampa,33664,27.965983118915,-82.503626026555,4.1,"Restaurants, Falafel, Fast Food, Mediterranean, Middle Eastern, Halal, Greek",4.0,2020,1.0
1492,3 Brothers Halal Food Truck,13742 N 42nd St,RGTW,Tampa,33664,28.0717285,-82.4145009,4.0,"Middle Eastern, Food, Food Trucks, Halal, Restaurants",4.2,2020,1.0
14b7,La Creperia Cafe,1729 E 7th Ave,RGTW,Tampa,33664,27.9601035901,-82.4396060472,4.0,"Creperies, Desserts, Breakfast & Brunch, Restaurants, Coffee & Tea, Specialty Food, Local Flavor, Food",5.0,2020,1.0
14c1,Ling Express,803 E Bloomingdale Ave,W2W7,Brandon,33511,27.893126500000005,-82.2731072,3.5,"Restaurants, American (Traditional), Chinese, Asian Fusion",5.0,2020,0.5
14db,The Sail,333 S Franklin St,RGTW,Tampa,33664,27.940652,-82.455311,3.5,"Bars, Nightlife, Sandwiches, Restaurants, Arts & Entertainment, Music Venues",3.7,2020,1.0
1500,Rocky Mountain Subs,35220 US Hwy 19 N,IKXB,Palm Harbor,34685,28.092965,-82.7411465,5.0,"Restaurants, Sandwiches",4.8,2020,1.0
1509,El Son Del Coqui,7045 Ridge Rd,9LT4,Port Richey,34668,28.2824186,-82.6978262,3.0,"Spanish, Puerto Rican, Latin American, Restaurants, Caribbean",1.0,2020,0.5
1520,Paradise Restaurant,443 Main St,B8F4,Safety Harbor,34695,27.9909669,-82.6920068,3.5,"American (Traditional), American (New), Italian, Chinese, Breakfast & Brunch, Seafood, Diners, Restaurants, Greek",2.3,2020,1.0
1523,New China,928 58th St N,9EV3,San Petersburgo,33730,27.88663936818181,-82.643363375,3.5,"Chinese, Restaurants",3.6,2020,1.0
1527,Ulele,1810 N Highland Ave,RGTW,Tampa,33664,27.9601605512,-82.4625296518,4.0,"Breweries, Food, American (New), Beer, Wine & Spirits, Restaurants, Seafood",4.3,2020,1.0
1534,Ava,718 S Howard Ave,RGTW,Tampa,33664,27.936236,-82.482862,3.5,"Wine Bars, Desserts, Bars, American (New), Nightlife, Restaurants, Italian, Food, Salad, Breakfast & Brunch, Pizza",3.3,2020,1.0
1543,Boca - Brandon,11206 Sullivan St,TC12,Riverview,33579,27.893166,-82.315016,4.0,"Bars, Restaurants, American (New), Cocktail Bars, Nightlife, Breakfast & Brunch",4.0,2020,1.0
155f,Green Tea Chinese Restaurant,11832 US Hwy 19,9LT4,Port Richey,34668,28.3305098446,-82.6986763634,3.0,"Restaurants, Chinese",2.2,2020,0.5
1562,Salt Cracker Fish Camp,25 Causeway Blvd,MCCU,Clearwater,33769,27.9767496661,-82.82648932190001,4.0,"Restaurants, Burgers, American (New), Asian Fusion, Sandwiches, Seafood, Steakhouses",4.2,2020,1.0
156a,JoToro Kitchen & Tequila Bar,"615 Channelside Dr, Ste 114",RGTW,Tampa,33664,27.9432707588,-82.4463322,3.5,"Restaurants, Mexican, Bars, Nightlife",3.9,2020,1.0
1583,Canopy Road Cafe - Tampa,10254 Causeway Blvd,RGTW,Tampa,33664,27.923695103299995,-82.3408286179,4.0,"Restaurants, Breakfast & Brunch, Diners",4.0,2020,1.0
1585,Cafe De Siam,11242 W Hillsborough Ave,RGTW,Tampa,33664,28.009685,-82.6098728,4.5,"Restaurants, Thai",4.2,2020,1.0
1590,Stones Throw at Armature Works,1910 North Ola Avenue,RGTW,Tampa,33664,27.960464,-82.4635455385,4.0,"Bars, Nightlife, Food, Seafood, Restaurants, Specialty Food, Seafood Markets, Cocktail Bars",4.0,2020,1.0
15b2,The Rez Grill - Seminole Hard Rock Tampa,5223 N Orient Rd,RGTW,Tampa,33664,27.992828,-82.372179,4.0,"Restaurants, American (New), Cocktail Bars, Wine Bars, Seafood, Bars, Nightlife",4.1,2020,1.0
15c0,Taiwan Express Chinese Restaurant,11022 US Hwy 41 S,EPNS,Gibsonton,33534,27.8408709224,-82.3807048425,4.0,"Chinese, Restaurants",3.9,2020,1.0
15ce,Due Amici,1724 E 7th Ave,RGTW,Tampa,33664,27.9604769,-82.4396361,4.5,"Nightlife, Bars, Pizza, Restaurants, Italian",4.6,2020,1.0
15e2,Vampire Penguin,10789 Park Blvd,8ZKX,Seminole,33777,28.02435110125517,-82.75958784127242,4.5,"Restaurants, Ice Cream & Frozen Yogurt, Shaved Snow, Food, Desserts",4.8,2020,1.0
15f1,Koozie's Sports Pub,9539 E Fowler Ave,UGDG,Thonotosassa,33592,28.052758,-82.334721,4.0,"Nightlife, Bars, Restaurants, American (Traditional), Local Flavor, Sports Bars, Pubs",5.0,2020,1.0
1608,Kogi Grill,7161 Ulmerton Rd,LIFE,Largo,33778,27.8946026,-82.7366739,4.5,"Korean, Barbeque, Restaurants, Asian Fusion",4.5,2020,1.0
1645,Bunga Raya Restaurant & Sushi Bar,4952 Ridgemoor Blvd,IKXB,Palm Harbor,34685,28.1005929,-82.6914139,4.0,"Restaurants, Sushi Bars, Chinese, Malaysian",4.3,2020,1.0
1651,Lorene's Fish & Crab House,929 22nd St S,9EV3,San Petersburgo,33730,27.7604831,-82.6631758,4.5,"Seafood, Restaurants",4.8,2020,1.0
165a,La Lechonera,11147 County Line Rd,I0WF,Spring Hill,34610,28.1614649941125,-82.50461019347499,4.0,"Puerto Rican, Cuban, Spanish, Sandwiches, Caribbean, Cafes, Food, Desserts, Latin American, Cafeteria, Restaurants",3.4,2020,1.0
1660,Soul Sicilian Fusion,516 Cleveland St,MCCU,Clearwater,33769,27.965822,-82.799309,4.5,"Event Planning & Services, Nightlife, Pizza, Italian, Bars, Venues & Event Spaces, Wine Bars, Restaurants",4.0,2020,1.0
1681,Beach Fire Beach Bar & Grille,608 Mandalay Ave,EXHF,Clearwater Beach,33767,27.9859833,-82.8268034,3.0,"Barbeque, Restaurants, American (Traditional), Seafood",3.7,2020,1.0
16ab,Brick & Mortar,539 Central Ave,9EV3,San Petersburgo,33730,27.7713489,-82.6410526,4.5,"Nightlife, Bars, American (New), Restaurants, Wine Bars",4.3,2020,1.0
16c3,The Dog House and More,106 N US Hwy 41,D8OX,Ruskin,33570,27.720091,-82.4346489,4.5,"Ice Cream & Frozen Yogurt, Restaurants, Barbeque, Food, Cheesesteaks, Hot Dogs, Burgers, Seafood",4.5,2020,1.0
16d4,En Mi Viejo San Juan,7657 W Hillsborough Ave,RGTW,Tampa,33664,27.9975942846,-82.5656077072,4.5,"Puerto Rican, Food Trucks, Sandwiches, Restaurants, Food, Caribbean",3.0,2020,1.0
16d5,Osaka Sushi & Grill,14428 N Dale Mabry Hwy,RGTW,Tampa,33664,28.0794073214,-82.5074851025,4.0,"Japanese, Asian Fusion, Restaurants, Sushi Bars",3.7,2020,1.0
16f0,Arroy Thai,27427 Wesley Chapel Blvd,CQ72,Wesley Chapel,33545,28.20660507692308,-82.38554300000001,4.0,"Thai, Food, Restaurants, Desserts, Food Delivery Services, Asian Fusion, Specialty Food, Seafood",4.2,2020,1.0
16f7,Tia's Tex Mex,2815 E Fowler Ave,RGTW,Tampa,33664,28.0537533,-82.427617,3.0,"Restaurants, Mexican",5.0,2020,1.0
1701,Marinas Pizza & Pasta,12121 W Linebaugh Ave,RGTW,Tampa,33664,28.05691,-82.62430099999999,4.0,"Restaurants, Pizza, Sandwiches, Italian",2.8,2020,1.0
1709,PDQ South Dale,2207 S Dale Mabry Hwy,RGTW,Tampa,33664,27.9253598,-82.5062996,3.5,"American (Traditional), Sandwiches, Diners, Restaurants, Fast Food, Chicken Shop, Salad",2.4,2020,1.0
172e,Boston Market,4001 E Bay Dr,MCCU,Clearwater,33769,27.983813408725,-82.61573887522857,3.0,"Comfort Food, Chicken Shop, American (Traditional), Restaurants, Caterers, Event Planning & Services, Sandwiches",2.3,2020,1.0
1739,Don Taco Mexican Restaurant,672 E Tarpon Ave,3IGC,Tarpon Springs,34689,28.1462109,-82.7468238,4.5,"Mexican, Restaurants",4.7,2020,1.0
173c,Starlite Cafe,1336 Main St,L2T6,Dunedin,34698,28.05133375384615,-82.67347294615385,4.1,"Cafes, Wraps, Breakfast & Brunch, Salad, American (Traditional), Soup, Restaurants, Sandwiches",4.4,2020,1.0
1745,Island Way Grill,20 Island Way,MCCU,Clearwater,33769,27.9762783,-82.817396,3.5,"Seafood, Sushi Bars, Steakhouses, Restaurants",3.7,2020,1.0
1755,Al's Finger Licking Good Bar-B-Que,1609 Angel Oliva Sr St,RGTW,Tampa,33664,27.959248800000005,-82.4390309,4.5,"American (Traditional), Southern, Barbeque, Restaurants",4.9,2020,1.0
1765,Nueva Cantina,1625 4th St S,9EV3,San Petersburgo,33730,27.754458300000003,-82.6389119,4.0,"Restaurants, Nightlife, Cocktail Bars, Latin American, Breakfast & Brunch, Bars, Mexican, Lounges",3.8,2020,1.0
177c,Craft Kafe,6653 Central Ave,9EV3,San Petersburgo,33730,27.77115271686154,-82.67190207932308,4.5,"Restaurants, Gluten-Free, Coffee & Tea, Food, Bakeries",4.3,2020,1.0
17ab,One Family Korean Restaurant,7030 W Hillsborough Ave,RGTW,Tampa,33664,27.9957891712,-82.5602963049,4.0,"Nightlife, Restaurants, Korean, Karaoke",4.3,2020,1.0
17ae,Soho Sushi,3218 W Kennedy Blvd,RGTW,Tampa,33664,27.9445131236,-82.4966429919,4.0,"Sushi Bars, Japanese, Restaurants, Food",3.8,2020,1.0
17af,Frankie's Deli,"1969 Sunset Point Rd, Ste 10",MCCU,Clearwater,33769,27.9898789,-82.7563766,3.5,"Restaurants, Delis, Salad, Sandwiches",1.0,2020,1.0
17b8,La Villa Mexican Grill,4437 Linx Paw Trl,HGEX,Valrico,33596,27.877129,-82.2227644,4.0,"Mexican, Restaurants",3.9,2020,1.0
17d4,The Hungry Greek,12950 Race Track Rd,RGTW,Tampa,33664,28.12188395,-82.46323148,4.2,"Restaurants, Greek",4.3,2020,1.0
17e1,Hong Kong Chinese Restaurant,4337 Commercial Way,I0WF,Spring Hill,34610,28.493414,-82.59989,3.0,"Restaurants, Chinese",2.6,2020,0.5
17e9,Ibbi's Q,1658 Paloma Ln,L2T6,Dunedin,34698,28.028185,-82.7855442,4.0,"Barbeque, Restaurants, Food, Food Trucks",4.0,2020,1.0
17ea,Sakura Sushi,3438-16 E Lake Rd,IKXB,Palm Harbor,34685,28.0617535,-82.7059224,4.5,"Restaurants, Japanese, Sushi Bars",3.9,2020,1.0
17ef,SoFresh,2774-A East Fowler Ave,RGTW,Tampa,33664,28.01069896447556,-82.4959619055911,4.5,"American (Traditional), Food, Vegetarian, Salad, Juice Bars & Smoothies, Restaurants, Wraps, Vegan, Gluten-Free, American (New)",3.7,2020,1.0
183e,Famous Sal's Pizza - New Port Richey,6516 Massachusetts Ave,3IHW,New Port Richey,34655,28.2575,-82.7064,3.5,"Food, Restaurants, Pizza, Sandwiches, Desserts, Italian",1.0,2020,1.0
184c,Jade Garden,2626 W Hillsborough Ave,RGTW,Tampa,33664,27.9953438766,-82.4867143931,3.5,"Chinese, Restaurants",2.8,2020,1.0
1854,1823 Kitchen & Bar,2900 Bayport Dr,RGTW,Tampa,33664,27.9654998647,-82.5501114035,4.0,"Restaurants, Nightlife, American (New), Bars",4.5,2020,1.0
1856,Sea Hut,5611 US Hwy 19,WJ3L,Palmetto,34221,27.5644572387,-82.565448335,3.5,"Restaurants, Seafood, American (Traditional), Soup",3.6,2020,1.0
185b,Nick's Pizzaria and Wings,1707 James L Redman Pkwy,7QXG,Plant City,33567,27.9979018,-82.1228654,4.0,"Italian, Pizza, Burgers, Restaurants, Cheesesteaks",3.8,2020,1.0
1865,Miguelitos Taqueria Y Tequilas,2702 W Kennedy Blvd,RGTW,Tampa,33664,27.9444937,-82.4880087,4.0,"Tex-Mex, Seafood, Mexican, Restaurants",3.8,2020,1.0
1881,The Humming Bird Jerk house,"17631 Bruce B Downs Blvd, Unit F",RGTW,Tampa,33664,28.130283,-82.364992,3.5,"Restaurants, Caribbean",2.5,2020,1.0
188f,Cooks Downtown,"201 E Kennedy Blvd, Fl 2",RGTW,Tampa,33664,27.9471475,-82.4582238,4.5,"Cafes, Salad, Restaurants, Delis, Soup, Sandwiches",5.0,2020,1.0
18a0,Ha Long Bay,2192 Main St,L2T6,Dunedin,34698,27.919524831460865,-82.71313515551304,3.5,"Chinese, Restaurants",3.9,2020,1.0
18b2,Cask Social Kitchen,208 S Howard Ave,RGTW,Tampa,33664,27.9426685,-82.4827162,4.0,"Breakfast & Brunch, Restaurants, Southern, American (New)",3.5,2020,1.0
18b4,PDQ Trinity,3154 Disciple Ln,3IHW,New Port Richey,34655,28.204014,-82.6668041,3.5,"Fast Food, Restaurants, Chicken Shop, Sandwiches",3.2,2020,1.0
18be,Provisions Coffee & Kitchen,5862 Goldview Pkwy,CQ72,Wesley Chapel,33545,28.2418295018,-82.3519144186,4.5,"Bakeries, Coffee & Tea, Bars, Donuts, Beer Bar, Food, Bubble Tea, Restaurants, Nightlife, Breakfast & Brunch, Gluten-Free, Vegan, Cafes, Acai Bowls",4.2,2020,1.0
18f9,D-Town Bar & Grill,1056 Main St,L2T6,Dunedin,34698,28.0192509782,-82.774851719,3.0,"Sports Bars, Nightlife, American (Traditional), Breakfast & Brunch, Cafes, Restaurants, Burgers, Bars",1.9,2020,1.0
190f,Osaka Express,18855 State Road 54,1GQ7,Lutz,33559,28.194996,-82.5037631,4.5,"Restaurants, Food, Hawaiian, Japanese, Poke",4.7,2020,1.0
193f,Gu Wei Noodles & Grill,"18101 Highwoods Preserve Pkwy, Ste 100",RGTW,Tampa,33664,28.12425952142857,-82.38273007857141,4.4,"Szechuan, Noodles, Restaurants, Chinese",4.8,2020,1.0
1949,Shomi Sushi & Seafood,13680 Walsingham Rd,LIFE,Largo,33778,27.88119543953488,-82.81987181627906,4.5,"Restaurants, Seafood, Sushi Bars, Salad, Japanese",4.7,2020,1.0
1950,Twistee Treat - Wesley Chapel,5258 Village Market,CQ72,Wesley Chapel,33545,28.236218,-82.353067,4.5,"Desserts, Shaved Ice, Restaurants, Hot Dogs, Ice Cream & Frozen Yogurt, Juice Bars & Smoothies, Food",4.1,2020,1.0
1961,Pacific Thai Cuisine,"4058 Tampa Rd, Ste 5",96OP,Oldsmar,34677,28.035137007,-82.6543432493,4.5,"Sushi Bars, Restaurants, Thai",3.9,2020,1.0
1962,El Gallo De Oro,4007 Fiesta Plz,RGTW,Tampa,33664,27.974478,-82.485493,4.0,"Restaurants, Salad, Cuban, Breakfast & Brunch",4.0,2020,1.0
1969,The Crooked Wood Bar and Grill,1100 Tarpon Woods Blvd,IKXB,Palm Harbor,34685,28.087699,-82.693923,4.0,"Nightlife, Restaurants, Chicken Wings, American (Traditional), Bars, Sports Bars",3.2,2020,1.0
1991,Thomas P's Sports Bar & Patio,12836 Henderson Rd,RGTW,Tampa,33664,28.0628484,-82.5503384,4.5,"Nightlife, Pizza, Bars, Mexican, Sandwiches, Sports Bars, Pubs, Restaurants, Tacos",4.4,2020,1.0
1994,Chez Faby,500 N Tampa St,RGTW,Tampa,33664,27.9482169374,-82.4592572145,4.5,"Coffee & Tea, Restaurants, Creperies, Food, French",4.8,2020,1.0
19a2,Reel Bbq,993 Florida Ave,IKXB,Palm Harbor,34685,28.0783886,-82.7676222,4.5,"Hot Dogs, Food, Barbeque, Restaurants, Food Stands, Food Trucks",4.8,2020,1.0
19a4,Mark Anthony Pizza,2165 Mariner Blvd,I0WF,Spring Hill,34610,28.4641565,-82.5417597,4.5,"Pizza, Restaurants",5.0,2020,1.0
19cb,Sticky Rice Sushi,11351 Big Bend Rd,TC12,Riverview,33579,27.791157495,-82.3168746999,4.5,"Japanese, Thai, Sushi Bars, Restaurants",4.3,2020,1.0
19cd,Fresco's Waterfront Bistro,300 2nd Ave NE,9EV3,San Petersburgo,33730,27.7732269651,-82.6314324449,3.5,"Nightlife, Restaurants, Seafood, Bistros, American (Traditional), Bars",4.0,2020,1.0
19d6,Villa Gallace Italian Restaurant,109 Gulf Blvd,SOWC,Indian Rocks Beach,33785,27.878857600000003,-82.8500322,4.5,"Italian, Restaurants",4.5,2020,1.0
19ec,Peabody's,15333 Amberly Dr,RGTW,Tampa,33664,28.0878576,-82.4044612,4.0,"Dance Clubs, Nightlife, Pool Halls, Bars, American (Traditional), Restaurants, Sports Bars",3.4,2020,1.0
1a08,Bonsai Sushi,1652 Bruce B Downs Blvd,CQ72,Wesley Chapel,33545,28.1822037,-82.3528498,4.0,"Restaurants, Sushi Bars",4.5,2020,1.0
1a10,Rusty Pelican - Tampa,2425 Rocky Point Dr,RGTW,Tampa,33664,27.962265,-82.569991,4.0,"African, Venues & Event Spaces, Steakhouses, Restaurants, Seafood, American (New), Event Planning & Services",4.2,2020,1.0
1a12,Yummi Crab,2950 Gulf To Bay Blvd,MCCU,Clearwater,33769,27.9612315,-82.7146919,4.0,"Food, Cocktail Bars, Cajun/Creole, Nightlife, Bars, Live/Raw Food, Restaurants, Seafood, Desserts",4.3,2020,1.0
1a31,Al & Stella Authentic Italian Restaurant & Pizzeria -Water Front,"1261 Gulf Blvd, Ste 110",EXHF,Clearwater Beach,33767,27.9518905,-82.8297283,3.5,"Specialty Food, Italian, Mediterranean, Restaurants, Pizza, Food",4.2,2020,1.0
1a52,Cafe Alfresco,344 Main St,L2T6,Dunedin,34698,27.99582358198644,-82.77899645623728,4.0,"Restaurants, Seafood, American (New)",3.9,2020,1.0
1a56,Suncoast Family Restaurant,1901 W Bay Dr,LIFE,Largo,33778,27.9164121,-82.8070611,4.0,"Breakfast & Brunch, Restaurants, Greek, Sandwiches",5.0,2020,1.0
1a65,Ricazuelafl,25206 Wesley Chapel Blvd,1GQ7,Lutz,33559,28.1932499784,-82.3992837025,4.5,"Food, Venezuelan, Latin American, Restaurants, Food Trucks",4.5,2020,1.0
1a6a,Don Pan,1708 Bruce B Downs Blvd,CQ72,Wesley Chapel,33545,28.182355,-82.35219,3.5,"Sandwiches, Cafes, Bakeries, Venezuelan, Latin American, American (New), Cuban, Restaurants, Food, Custom Cakes",4.3,2020,1.0
1a71,Proino Breakfast & Lunch,1700 S Missouri Ave,MCCU,Clearwater,33769,27.9347746,-82.7878394,4.0,"Restaurants, Breakfast & Brunch, Cafes, Mediterranean, American (New), Pizza, American (Traditional)",3.9,2020,1.0
1a80,Rack City Ribz,11201 US Hwy 41 S,EPNS,Gibsonton,33534,27.839736,-82.382189,5.0,"Barbeque, Food, Restaurants, Caterers, Event Planning & Services, Food Trucks",4.8,2020,1.0
1a86,Franci's Cafe,"4901 W Linebaugh Ave, Ste 7",RGTW,Tampa,33664,28.0408259,-82.5264812,4.5,"Food, Restaurants, Cuban, Cafes",5.0,2020,1.0
1a8e,Happy Fish,4046 N Armenia Ave,RGTW,Tampa,33664,27.977345203125,-82.485036109375,4.5,"Restaurants, Latin American, Peruvian, Seafood",3.9,2020,1.0
1aa3,The Lure,661 Central Ave,9EV3,San Petersburgo,33730,27.785433385526314,-82.6291169513158,4.0,"Bars, Pool Halls, Sushi Bars, Restaurants, Nightlife, Tapas Bars",4.0,2020,1.0
1aad,Ikigai Sushi Bowls and Wraps,"4195 54th Ave N, Unit E",9EV3,San Petersburgo,33730,27.8215057196,-82.6887660725,4.5,"Asian Fusion, Sushi Bars, Poke, Restaurants, Food, Food Trucks, Japanese",4.4,2020,1.0
1ac1,Cali Cafe,10010 US-301,TC12,Riverview,33579,27.854417317800003,-82.32598718519999,4.5,"Food, Coffee & Tea, Bakeries, Sandwiches, Desserts, Restaurants, Cafes",4.9,2020,1.0
1ac8,Ichicoro Ane,"260 1st Ave S, Ste 100",9EV3,San Petersburgo,33730,27.7701014,-82.6364594,4.0,"Ramen, Restaurants, Tapas/Small Plates, Nightlife, Japanese, Bars, Cocktail Bars",4.3,2020,1.0
1b2f,Splitsville Southern + Social,"615 Channelside Dr, Ste 120",RGTW,Tampa,33664,27.943143,-82.446578,3.5,"Restaurants, Southern, Wine Bars, Bars, Event Planning & Services, Nightlife, Venues & Event Spaces",3.2,2020,1.0
1b30,DiMisa Gourmet Sicily + Dolci,8205 US-301,TC12,Riverview,33579,27.870404230500004,-82.3269433156,4.5,"Specialty Food, Pasta Shops, Italian, Restaurants, Sandwiches, Food, Desserts",4.4,2020,1.0
1b4e,Little Caesar's Pizza,9854 Us Hwy 301 S,TC12,Riverview,33579,27.90606362472,-82.56340890506002,3.0,"Restaurants, Pizza",3.2,2020,1.0
1b56,Duke's Brewhouse,2212 James L Redman Pkwy,7QXG,Plant City,33567,27.931208246153844,-82.27444981076923,2.6,"Nightlife, Sports Bars, Restaurants, American (Traditional), Pubs, Bars, Chicken Wings",2.8,2020,1.0
1b5a,Sawatdee Thai Cuisine,10938 N 56th St,RGTW,Tampa,33664,28.0483867,-82.394248,4.0,"Restaurants, Thai, Noodles, Soup",4.1,2020,1.0
1b63,Samurai Blue Sushi & Sake Bar,"1600 E 8th Ave, Ste C208",RGTW,Tampa,33664,27.9608345486,-82.4417488807,4.0,"Restaurants, Japanese, Soup, Sushi Bars",3.6,2020,1.0
1b6b,La Giraldilla,"1003 W Hillsborough Ave, Ste 4",RGTW,Tampa,33664,27.9963789,-82.4721976,3.0,"Restaurants, Bars, Nightlife, Cuban",5.0,2020,1.0
1b9e,Boneyard,1823 E 7th Ave,RGTW,Tampa,33664,27.9600821,-82.438332,3.5,"Bars, Chicken Wings, Restaurants, American (Traditional), Beer, Wine & Spirits, Nightlife, Food",1.0,2020,0.5
1bcf,Shundra's Soul Smokehouse,3887 Northdale Blvd,RGTW,Tampa,33664,28.074495536363635,-82.54097086060607,3.8,"Southern, Salad, Restaurants, Barbeque, Soul Food",3.6,2020,1.0
1bd8,Maggiano's Little Italy,203 Westshore Plz,RGTW,Tampa,33664,27.946453,-82.526348,4.0,"Bars, Italian, Restaurants, Nightlife",3.9,2020,1.0
1c04,Monserrate Restaurant Bar & Grill,2311 W Hillsborough Ave,RGTW,Tampa,33664,27.9962313,-82.4826369,4.0,"Latin American, Nightlife, Restaurants, Cafes, American (Traditional), Colombian, Mexican, Puerto Rican, Seafood, Caribbean, Spanish",3.2,2020,0.5
1c0c,Great Wall,3153 4th St N,9EV3,San Petersburgo,33730,27.80595080909092,-82.63987622727274,2.4,"Chinese, Seafood, Restaurants, Soup",2.5,2020,1.0
1c29,Vinny's pizza,312 West Bay Dr,LIFE,Largo,33778,27.9169223,-82.7915662,4.0,"Restaurants, Pizza",3.0,2020,1.0
1c90,Charanns Tavern,6748 Memorial Hwy,RGTW,Tampa,33664,27.995757,-82.5831536204,3.5,"Sports Bars, American (Traditional), Sandwiches, Restaurants, Nightlife, Cheesesteaks, Bars",2.3,2020,1.0
1ca3,Kimmy D's 49th Street Cafe,12211 49th St N,MCCU,Clearwater,33769,27.8831445,-82.6998716,4.0,"Restaurants, Breakfast & Brunch",5.0,2020,1.0
1ca6,Ravello Pizzeria,4900 E Bay Dr,MCCU,Clearwater,33769,27.9168341,-82.7362525,3.5,"Pizza, Restaurants",3.5,2020,1.0
1cbd,Outpost 611 Eatery & Taphouse,"2454 McMullen Booth Rd, Ste 103",MCCU,Clearwater,33769,28.011696000000004,-82.707577,4.5,"Beer Bar, American (Traditional), Restaurants, Bars, Nightlife",4.8,2020,1.0
1cc6,Bar Fly Safety Harbor,"100 Main St, Ste 101",B8F4,Safety Harbor,34695,27.9906021349,-82.6883433248,4.0,"Restaurants, Barbeque, Seafood, Bars, Nightlife, Pubs, Caribbean",4.4,2020,1.0
1cd1,Spice Routes,460 46th Ave N,9EV3,San Petersburgo,33730,27.813447,-82.640281,5.0,"Restaurants, Sandwiches, Mediterranean, Middle Eastern, Soup",5.0,2020,1.0
1cd8,Grain and Berry - New Tampa,8638 Hunters Village Rd,RGTW,Tampa,33664,28.139999803,-82.3575468852,4.5,"Restaurants, Acai Bowls, Juice Bars & Smoothies, Food, Vegan",4.5,2020,1.0
1cf9,Poke Burri - Tampa,4034 W Kennedy Blvd,RGTW,Tampa,33664,27.9444296,-82.5112203,4.5,"Poke, Restaurants, Sushi Bars, Food",4.7,2020,1.0
1d03,The Little Lamb,"2475 N McMullen Booth Rd, Ste J",MCCU,Clearwater,33769,28.0114224507,-82.7109746614,4.5,"Pubs, Gastropubs, Bars, Nightlife, American (New), Restaurants",4.6,2020,1.0
1d20,Cork & Beans Coffee House & Wine Lounge,733 Broadway,L2T6,Dunedin,34698,28.0115853,-82.789553,4.5,"Food, Wine Bars, Bars, Nightlife, Restaurants, Coffee & Tea",4.9,2020,1.0
1d26,Cafe Adriatic,3465 Deltona Blvd,I0WF,Spring Hill,34610,28.485703,-82.574772,4.5,"Ice Cream & Frozen Yogurt, Coffee & Tea, Sandwiches, Cafes, Restaurants, Food, Juice Bars & Smoothies",5.0,2020,1.0
1d39,Zeko's Pizzeria,2001 Gulf To Bay Blvd,MCCU,Clearwater,33769,27.9601029,-82.7540749,4.0,"Pizza, Restaurants",2.8,2020,1.0
1d4a,Taste of Boston,5314 Interbay Blvd,RGTW,Tampa,33664,27.8892079759,-82.4807473821,3.5,"Restaurants, Seafood, Fish & Chips, American (Traditional)",4.4,2020,1.0
1d5c,Publix - Saint Petersburg,1700 34th St N,9EV3,San Petersburgo,33730,27.788784,-82.680894,3.5,"Specialty Food, Delis, Food, Meat Shops, Restaurants, Grocery",3.4,2020,1.0
1d6d,Suzi's Restaurant,1555 E Bay Dr,LIFE,Largo,33778,27.916168,-82.772327,4.5,"Breakfast & Brunch, Diners, American (New), Restaurants, Greek",5.0,2020,1.0
1d75,Los Comparres II,5636 W Waters Ave,RGTW,Tampa,33664,28.0254403245,-82.540747,4.0,"Food Trucks, Food, Food Stands, Restaurants, Mexican, Tacos",3.8,2020,1.0
1d80,My Kitchen,18215 US 41 Service Rd,1GQ7,Lutz,33559,28.1384907212,-82.4625825021,4.0,"Restaurants, Diners, Breakfast & Brunch, American (Traditional), Southern, American (New)",5.0,2020,1.0
1d81,Gengiz Khan Mediterranean Grill,3114 W Bay To Bay Blvd,RGTW,Tampa,33664,27.9194653726,-82.4947849089,3.5,"Restaurants, Chinese, Mediterranean, Turkish",3.7,2020,1.0
1d82,Esposito's Espo Pizza,2803 James L Redman Pkwy,7QXG,Plant City,33567,27.985024997,-82.1223354454,4.0,"Pizza, Italian, Salad, Restaurants",3.8,2020,1.0
1d84,Chai Yo Thai Cuisine,11695 Boyette Rd,TC12,Riverview,33579,27.853570699999995,-82.3038748,4.0,"Laotian, Vegetarian, Thai, Restaurants, Noodles, Food, Asian Fusion",4.3,2020,1.0
1d97,S Gyros,1906 W Kennedy Blvd,RGTW,Tampa,33664,27.944559,-82.47921,3.5,"American (New), American (Traditional), Juice Bars & Smoothies, Restaurants, Chicken Wings, Middle Eastern, Food, Wraps, Food Delivery Services",5.0,2020,1.0
1da2,Shell Shack - Clearwater,"27001 US Hwy 19 N, Ste 1140",MCCU,Clearwater,33769,28.0163775499,-82.7347534085,3.5,"American (Traditional), Restaurants, Seafood, Sports Bars, Nightlife, Bars, Food, Desserts, Cocktail Bars",5.0,2020,1.0
1dba,Marker 39 Floribbean Cuisine,155 5th Ave N,B8F4,Safety Harbor,34695,27.9914358767,-82.692395209,4.5,"Caribbean, American (New), Asian Fusion, Restaurants, Latin American",4.9,2020,1.0
1dc5,Riverwalk Cafe at TMA,120 W Gasparilla Plz,RGTW,Tampa,33664,27.9495219,-82.4626673,3.5,"Nightlife, Cocktail Bars, Restaurants, Breakfast & Brunch, Bars, Cafes",5.0,2020,1.0
1de6,Spanish Tapas Cafe,"1202 Tech Blvd, Ste 100",RGTW,Tampa,33664,27.9611327569,-82.3333708787,4.0,"Restaurants, Spanish, Cuban",4.2,2020,1.0
1dea,Happi Wok,1252 County Rd 1,L2T6,Dunedin,34698,28.04646765,-82.59699665,3.2,"Cantonese, Restaurants, Chinese",4.8,2020,1.0
1df1,Georgia Boy's Bar B-Que,205 St Petersburg Dr E,96OP,Oldsmar,34677,28.03338044,-82.6636821,3.5,"Barbeque, Restaurants",5.0,2020,1.0
1dfd,Dolce Speakeasy & Supperclub,1343 Cleveland St,MCCU,Clearwater,33769,27.9653166,-82.7812282,4.0,"Restaurants, American (New), Desserts, Beer Bar, Nightlife, American (Traditional), Food, Salad, Bars",2.5,2020,1.0
1e04,Central Melt,685 Central Ave,9EV3,San Petersburgo,33730,27.771403400000004,-82.6432167,4.5,"Restaurants, Soup, Sandwiches, Comfort Food, American (Traditional)",4.3,2020,1.0
1e07,Banh Mi Saigon,"8730 49th St N, Ste 11",SJ01,Pinellas Park,33782,27.851867,-82.700576,4.5,"Delis, Sandwiches, Cafes, Food, American (New), Vietnamese, Specialty Food, Restaurants",5.0,2020,1.0
1e20,Frenchy’s Outpost Bar & Grill,466 Causeway Blvd,L2T6,Dunedin,34698,28.0507705,-82.7834045,4.0,"American (Traditional), Nightlife, Bars, Restaurants, Seafood",4.0,2020,1.0
1e22,Raw Smoothie - SOG,6102 S Macdill Ave,RGTW,Tampa,33664,27.879846,-82.4936063,3.5,"Vegan, Acai Bowls, Restaurants, Food, Juice Bars & Smoothies, Organic Stores",5.0,2020,1.0
1e5a,Cristino's Coal Oven Pizza,1101 S Fort Harrison Ave,MCCU,Clearwater,33769,27.9543263,-82.7996168,4.5,"Pizza, Restaurants",4.4,2020,1.0
1e60,Aroma Indian Cuisine,351 W Bay Dr,LIFE,Largo,33778,27.916499711,-82.7919877321,4.0,"Indian, Restaurants, Buffets",4.6,2020,1.0
1e69,Paul's,530 Athens St,3IGC,Tarpon Springs,34689,28.1547586,-82.7603673,3.5,"Bars, Nightlife, Seafood, Pubs, Restaurants",4.2,2020,1.0
1e76,Filipiniana Philippine Café,3848 W Waters Ave,RGTW,Tampa,33664,28.0244044188,-82.5072803646,4.0,"Filipino, Restaurants, Bubble Tea, Food",4.5,2020,1.0
1e7f,O'Brien's Irish Pub & Grill Plant City,"1701 S Alexander St, Ste 112-3",7QXG,Plant City,33567,27.87838092307692,-82.61875415384614,3.9,"Nightlife, Bars, Irish, Pubs, Restaurants",3.5,2020,1.0
1e90,Rolo’s Bakery,9423 US-301,TC12,Riverview,33579,27.857643250599995,-82.3268872656,5.0,"Bakeries, Coffee & Tea, Restaurants, Breakfast & Brunch, Colombian, Latin American, Food",4.8,2020,1.0
1ea2,ShnookumsBBQ,1575 S Ft Harrison Ave,MCCU,Clearwater,33769,27.9400016,-82.7978878,5.0,"Restaurants, Barbeque, Food, Desserts, Event Planning & Services, Southern, Caterers",5.0,2020,1.0
1ebf,Willie Jewell’s Old School Bar-B-Q Largo,"9040 Ulmerton Rd, Ste 100",LIFE,Largo,33778,27.8940304,-82.7644206,3.5,"Barbeque, Sandwiches, Southern, Restaurants",3.0,2020,1.0
1ec2,M&G Cuban Cafe II,7177 Ulmerton Rd,LIFE,Largo,33778,27.8946221,-82.7369268,4.5,"Cuban, Restaurants",3.8,2020,1.0
1eda,Thai Basil II,1700 W Bay Dr,LIFE,Largo,33778,27.9170858,-82.8064506,4.0,"Restaurants, Thai, Sushi Bars",3.7,2020,1.0
1edf,Caribbean Cafe,9641 Palm River Rd,RGTW,Tampa,33664,27.82785233333333,-82.581367,3.8,"Spanish, Latin American, Restaurants, American (Traditional)",3.7,2020,1.0
1ef1,Sally O' Neal's Pizza Hotline,1319 S Howard Ave,RGTW,Tampa,33664,27.9289873,-82.4835461,4.0,"Food, Restaurants, Desserts, Salad, Gluten-Free, Pizza, Italian",4.8,2020,1.0
1ef6,Sam's Sushi,7210 US Hwy 19 N,SJ01,Pinellas Park,33782,27.836767,-82.686208,4.5,"Sushi Bars, Restaurants",4.6,2020,1.0
1f05,HEW Parlor & Chophouse,453 Edgewater Dr,L2T6,Dunedin,34698,28.006031,-82.7913136,4.0,"American (New), Bars, Steakhouses, Venues & Event Spaces, American (Traditional), Breakfast & Brunch, Event Planning & Services, Restaurants, Whiskey Bars, Nightlife",3.6,2020,1.0
1f0c,Liang's Bistro Asian Cuisine,17515 Bruce B Downs Blvd,RGTW,Tampa,33664,28.127516,-82.367689,4.0,"Restaurants, Desserts, Food, Pan Asian, Asian Fusion, Cantonese, Thai, Chinese",3.7,2020,1.0
1f24,Pei Wei Asian Kitchen,12927 N Dale Mabry Hwy,RGTW,Tampa,33664,28.06436085,-82.502789,3.0,"Restaurants, Japanese, Chinese, Gluten-Free, Korean, Fast Food, Asian Fusion",2.9,2020,1.0
1f52,Shanghai Express,2296 State Rd 580,MCCU,Clearwater,33769,28.0196448,-82.7427952,3.5,"Chinese, Restaurants",5.0,2020,0.5
1f75,Piccola Italia Bistro,2140 W Dr Martin Luther King Jr Blvd,RGTW,Tampa,33664,27.9810316,-82.4822126,4.5,"Italian, Pasta Shops, Cooking Classes, Restaurants, Specialty Food, Arts & Crafts, Food, Shopping",4.0,2020,1.0
1f7e,Largo Pizza,11411 Starkey Rd,LIFE,Largo,33778,27.8769079,-82.7618823,3.5,"Sandwiches, Pizza, Restaurants",5.0,2020,1.0
1f99,Bangkok Fusion Cafe,"3700 Ulmerton Rd, Ste 105",MCCU,Clearwater,33769,27.892956,-82.684235,4.5,"Sushi Bars, Thai, Asian Fusion, Restaurants",4.6,2020,1.0
1f9c,El Caribeno Restaurant,8425 W Hillsborough Ave,RGTW,Tampa,33664,27.9970154,-82.5786158,2.0,"Caribbean, Diners, Breakfast & Brunch, Cuban, Restaurants",1.0,2020,0.5
1fb8,Mel's Hot Dogs,4136 E Busch Blvd,RGTW,Tampa,33664,28.0329116,-82.4124436,4.0,"Hot Dogs, Restaurants, Fast Food",4.6,2020,1.0
1fb9,Pipo's Restaurant,7233 W Hillsborough Ave,RGTW,Tampa,33664,27.996668,-82.5610068,4.0,"Breakfast & Brunch, Restaurants, Sandwiches, Cuban, Food",4.7,2020,1.0
1fbd,Burger Culture,"2223 N Westshore Blvd, Fl 1 Ste 1002, International Plaza",RGTW,Tampa,33664,28.00892118367347,-82.50645214285713,3.9,"Restaurants, Empanadas, Food, Burgers, Breakfast & Brunch",3.9,2020,1.0
1fbf,The Cake Girl,14851 N Dale Mabry Hwy,RGTW,Tampa,33664,28.0838354811,-82.503966014,4.5,"Food Stands, Food, Gluten-Free, Desserts, Ice Cream & Frozen Yogurt, Restaurants, Food Trucks, Cupcakes, Custom Cakes, Patisserie/Cake Shop, Bakeries, Event Planning & Services, Caterers",4.5,2020,1.0
1fc3,The Hall on Franklin,1701 N Franklin St,RGTW,Tampa,33664,27.9597371,-82.4599701,4.0,"Ice Cream & Frozen Yogurt, Bars, Food, Comfort Food, Mexican, Restaurants, Nightlife, American (New), Beer Bar, Food Court, Coffee & Tea",4.0,2020,1.0
1fda,Old School Bar and Grill,2202 W Kennedy Blvd,RGTW,Tampa,33664,27.9444601067,-82.4822200835,4.5,"Nightlife, Bars, American (New), Restaurants",3.8,2020,1.0
1ff2,Flatbread & Butter,497 7th Ave N,9EV3,San Petersburgo,33730,27.7795694,-82.6404097,4.0,"Bakeries, Breakfast & Brunch, Cafes, Food, Coffee & Tea, Restaurants",3.3,2020,1.0
1ff8,Dino's Sub and Pizza,2526 US Hwy 19,DVM9,Holiday,34691,28.1955956,-82.7397734,3.5,"Sandwiches, Restaurants, Specialty Food, Pizza, Food, Fast Food",3.5,2020,1.0
2015,Rawk Star Cafe,"4011 Tampa Rd, Ste 11",96OP,Oldsmar,34677,28.0375497,-82.6581055,5.0,"Vegan, Juice Bars & Smoothies, Food, Gluten-Free, Restaurants",5.0,2020,1.0
2028,Treble Makers,6034 Wesley Grove Blvd,CQ72,Wesley Chapel,33545,28.2441873,-82.350148,3.0,"Restaurants, American (Traditional), Nightlife, Piano Bars",3.6,2020,1.0
204a,Ybor Grille,339 19th Ave NE,D8OX,Ruskin,33570,27.7347099,-82.4296684,4.0,"Nightlife, Restaurants, Cuban, Wine Bars, Bars",4.8,2020,1.0
204d,Williams Sub Shop,3801 Tyrone Blvd N,9EV3,San Petersburgo,33730,27.806517000000003,-82.749065,4.5,"Restaurants, Sandwiches",4.5,2020,1.0
2058,Toucans Bar & Grill,431 Mandalay Ave,MCCU,Clearwater,33769,27.979704000000005,-82.82699,3.0,"Bars, Food, American (Traditional), Restaurants, Nightlife, Seafood, Sports Bars",3.2,2020,1.0
2069,Harvey's Sandwich & Salads,33839 US Hwy 19 N,IKXB,Palm Harbor,34685,28.0797134942,-82.73766179,4.5,"Salad, Restaurants, Sandwiches",4.5,2020,1.0
207a,Splitsville,"615 Channelside Dr, Ste 120",RGTW,Tampa,33664,27.9430060957,-82.4469155189,3.5,"Southern, Bars, Active Life, Restaurants, Nightlife, Bowling",4.7,2020,1.0
20ab,Hackett's Causeway Cafe and Creamery,901 Curlew Rd,L2T6,Dunedin,34698,28.048935081700005,-82.7799664065,4.5,"Restaurants, Coffee & Tea, Pizza, Food, Ice Cream & Frozen Yogurt",4.7,2020,1.0
20c2,Razzel's Bar and Lounge,2794 Gulf To Bay Blvd,MCCU,Clearwater,33769,27.96120333,-82.72191167,3.5,"Bars, Chicken Wings, Dance Clubs, Pool Halls, Sports Bars, Nightlife, Karaoke, Dive Bars, Restaurants",2.0,2020,1.0
2134,Taps Burger Bar and Gastropub,"2223 N Westshore Blvd, Ste B227",RGTW,Tampa,33664,27.9656353,-82.521205,3.0,"Sports Bars, American (Traditional), Pubs, Tacos, Gastropubs, American (New), Bars, Wine Bars, Mexican, Nightlife, Food, Beer, Wine & Spirits, Burgers, Restaurants",3.9,2020,1.0
213b,Vito Pizza,8216 State Rd 52,Y3QW,Hudson,34669,28.3292815075,-82.6787118528,3.0,"Pizza, Restaurants",2.5,2020,0.0
2143,Hellas Bakery & Pita,307 Roosevelt Blvd,3IGC,Tarpon Springs,34689,28.1521183,-82.7610945,4.0,"Food, Bakeries, Professional Services, Wholesalers, Restaurants, Seafood",4.0,2020,1.0
2146,Italian Kitchen & Cafe,6915 US Hwy 301 S,TC12,Riverview,33579,27.881077999999995,-82.328286,4.0,"Italian, Internet Cafes, Restaurants, Food",4.2,2020,1.0
214c,Burger Theory,11310 N 30th St,RGTW,Tampa,33664,28.0517735,-82.4269645,3.5,"Burgers, Restaurants, Bars, Sports Bars, Beer, Wine & Spirits, Nightlife, Salad, Food",4.0,2020,1.0
2156,Blessed Cup,"483 Mandalay Ave, Unit 200",EXHF,Clearwater Beach,33767,27.981517000000004,-82.826742,4.5,"Food, Cafes, Breakfast & Brunch, Restaurants, Juice Bars & Smoothies, Coffee & Tea",4.3,2020,1.0
2166,The Cruising Smoothie,7512 Ehrlich Rd,RGTW,Tampa,33664,28.07842,-82.56928,3.5,"Food, Juice Bars & Smoothies, Salad, Coffee & Tea, Restaurants",5.0,2020,1.0
218f,Rosati's Pizza,"3730 Tampa Rd, Ste 6",96OP,Oldsmar,34677,27.99071150319768,-82.52685436419767,3.5,"Pizza, Sandwiches, Salad, Italian, Restaurants, Chicken Wings",3.3,2020,1.0
21a2,Mike's Sushi & Sake Bar,33855 US Hwy 19 N,IKXB,Palm Harbor,34685,28.06378096875,-82.67428633125,4.3,"Food, Desserts, Japanese, Restaurants, Sushi Bars",4.6,2020,1.0
21c4,Latin Bowl Restaurant-Largo,11500 Walsingham Rd,LIFE,Largo,33778,27.8799315,-82.7980509,4.5,"Cuban, Latin American, Fast Food, Caribbean, Restaurants, Mexican",4.5,2020,1.0
21cf,Arirang Korean Restaurant,5232 S Macdill Ave,RGTW,Tampa,33664,27.8876870663,-82.4936830117,4.5,"Vegetarian, Beer, Wine & Spirits, Food, Restaurants, Korean",3.9,2020,1.0
21e9,Toby's Original Little Italy Pizza,3523 49th St N,9EV3,San Petersburgo,33730,27.804623,-82.6990597,4.0,"Italian, Pizza, Restaurants",3.8,2020,1.0
21ed,FarmTable Cucina,179 2nd Ave N,9EV3,San Petersburgo,33730,27.7741254,-82.6353036,4.0,"Juice Bars & Smoothies, Food, Restaurants, Italian, Cocktail Bars, American (New), Local Flavor, Venues & Event Spaces, Wine Bars, Event Planning & Services, Nightlife, Breakfast & Brunch, Bars",4.0,2020,1.0
220f,La Teresita Restaurant,7101 66th St N,SJ01,Pinellas Park,33782,27.95344649411765,-82.71672298235295,3.7,"Restaurants, Spanish, Cuban",4.2,2020,1.0
2211,Cass Street Deli,1331 W Cass St,RGTW,Tampa,33664,27.949993800000005,-82.4741969,4.0,"Sandwiches, Delis, Restaurants, Breakfast & Brunch, Hot Dogs",4.0,2020,1.0
2215,Mr Mango Tampa,2223 N West Shore Blvd,RGTW,Tampa,33664,27.963716,-82.520724,4.5,"Vegetarian, Food, Desserts, Specialty Food, Vegan, Juice Bars & Smoothies, Fruits & Veggies, Restaurants",4.3,2020,1.0
2236,Juan-A-Taco,5781 Nebraska Ave,3IHW,New Port Richey,34655,28.249822,-82.718807,4.0,"Mexican, Restaurants, Tacos",4.4,2020,1.0
2244,The Grind Coffee Bar & Cafe at Westchase,9532 W Linebaugh Ave,RGTW,Tampa,33664,28.0432190931,-82.5919334963,4.0,"Food, Coffee & Tea, Breakfast & Brunch, Cafes, Restaurants",4.5,2020,1.0
2259,B's Island Kitchen,6016 N 40th St,RGTW,Tampa,33664,28.0020173,-82.4145261,4.5,"Restaurants, Caribbean",4.8,2020,1.0
2260,The Wheelhouse,7220 Central Ave,9EV3,San Petersburgo,33730,27.7705362,-82.7386969,4.5,"Nightlife, Bars, Beer Bar, American (New), Pubs, Restaurants",4.6,2020,1.0
2287,Ferg's Sports Bar & Grill,1320 Central Ave,9EV3,San Petersburgo,33730,27.793488923076925,-82.67300972307693,3.6,"Restaurants, Nightlife, American (Traditional), Bars, Sports Bars",3.4,2020,1.0
228b,La Fiesta Mexican Store,1202 S 22nd St,RGTW,Tampa,33664,27.745156413497565,-82.47286472834146,3.6,"Mexican, Food, Grocery, Restaurants",3.6,2020,1.0
228d,La Oriental Bakery,"3117 W Columbus Dr, Ste 203",RGTW,Tampa,33664,27.9671261,-82.4947127,3.5,"Bakeries, Restaurants, Food",5.0,2020,1.0
22ba,Skyview Restaurant,4407 N Hubert Ave,RGTW,Tampa,33664,27.9823817,-82.5154127,4.0,"Sandwiches, Restaurants, Food, Breakfast & Brunch, Desserts, Caterers, Event Planning & Services, Food Delivery Services, Burgers",2.0,2020,1.0
22c5,The Pie Factory,12777 Walsingham Rd,LIFE,Largo,33778,27.8811942012,-82.815704616,4.0,"Sandwiches, Desserts, Food, Bakeries, Restaurants, Custom Cakes, Cafes",4.0,2020,1.0
22e5,Sylvia's Waffles,2152 Drew St,MCCU,Clearwater,33769,27.9682136,-82.7486082,5.0,"Restaurants, Salad, Cafes, Wraps, Belgian, Vegan, Waffles",4.8,2020,1.0
22e9,Tsunami Sushi & Hibachi Grill,2020 Badlands Dr,W2W7,Brandon,33511,27.9271458636,-82.315246427,4.0,"Korean, Japanese, Sushi Bars, Restaurants",4.6,2020,1.0
22f4,Rene’s Mexican Kitchen,4414 N Nebraska Ave,RGTW,Tampa,33664,27.985734,-82.4511471,5.0,"Restaurants, Event Planning & Services, Caterers, Food, Food Trucks, Mexican",4.8,2020,1.0
2329,La Septima Cafe,702 W Lumsden Rd,W2W7,Brandon,33511,27.9248109088,-82.2943662968,4.0,"Spanish, Cuban, Delis, Italian, Breakfast & Brunch, Restaurants",3.3,2020,1.0
2344,Butcher N' Barbeque at Armature Works,1910 N Ola Ave,RGTW,Tampa,33664,27.961033,-82.463713,2.5,"Restaurants, Barbeque, Public Markets, Chicken Wings, Food, Shopping, Breakfast & Brunch, Butcher",2.5,2020,1.0
2347,Happy's Bayou Bites,431 Skinner Blvd,L2T6,Dunedin,34698,28.015515,-82.786851,4.5,"Seafood, Cajun/Creole, Restaurants, Fish & Chips",4.7,2020,1.0
2358,TeaStori,2732 E Fowler Ave,RGTW,Tampa,33664,28.0557460623,-82.429274,4.5,"Food, Bubble Tea, Restaurants, Desserts, Ice Cream & Frozen Yogurt, Cafes, Asian Fusion, Tea Rooms, Macarons, Specialty Food, Juice Bars & Smoothies",4.5,2020,1.0
238a,Poke LuLu,2382 Grand Cypress Dr,1GQ7,Lutz,33559,28.1921081949,-82.3916457607,4.5,"Bubble Tea, Hawaiian, Restaurants, Poke, Pop-Up Restaurants, Food",4.0,2020,1.0
238e,Thailand Restaurant,5252 S Dale Mabry Hwy,RGTW,Tampa,33664,27.8881238,-82.5060889,4.0,"Restaurants, Thai",3.3,2020,1.0
23a2,Rasoi Indian Cuisine,1701 E 8th Ave,RGTW,Tampa,33664,27.96077,-82.44027,4.5,"Indian, Restaurants",4.2,2020,1.0
23d3,Tropical Cuisine,9005 E Adamo Dr,RGTW,Tampa,33664,27.968133311764703,-82.38291107058824,4.3,"Dominican, Caribbean, Breakfast & Brunch, Restaurants, Latin American",3.9,2020,1.0
23d8,Best NY Pizza,14741 N Dale Mabry Hwy,RGTW,Tampa,33664,28.118715876232,-82.47083073752799,3.0,"Restaurants, Italian, Pizza",3.2,2020,1.0
23dc,Plum Tree,215 E Davis Blvd,RGTW,Tampa,33664,27.9270114,-82.4532518,3.0,"Restaurants, Chinese",4.0,2020,1.0
2404,The Stein & Vine,827 W Bloomingdale Ave,W2W7,Brandon,33511,27.888945683720934,-82.35102831395349,4.4,"American (New), Nightlife, Restaurants, Wine Bars, Bars, Burgers, Pubs",4.5,2020,1.0
2407,Rossi Ristorante Italiano,7254 State Road 54,3IHW,New Port Richey,34655,28.216073,-82.694123,4.0,"Italian, Event Planning & Services, Restaurants, Seafood, Pizza, Caterers",4.1,2020,1.0
2432,Top Shelf Sports Lounge,3173 Cypress Ridge Blvd,CQ72,Wesley Chapel,33545,28.1962523878,-82.3806153496,4.5,"Burgers, Sports Bars, Bars, Lounges, Restaurants, Salad, Wraps, Nightlife, American (New)",4.5,2020,1.0
2435,Taso Italiano,4016 Little Rd,3IHW,New Port Richey,34655,28.2188157,-82.66585210000001,3.5,"Seafood, Restaurants, Cocktail Bars, Beer, Wine & Spirits, Pizza, Greek, Food, Bars, Italian, Nightlife",3.5,2020,1.0
2458,Urban Bungalow,2606 W Hillsborough Ave,RGTW,Tampa,33664,27.99585,-82.485748,5.0,"Home Decor, Coffee & Tea, Home Services, Shopping, Flowers & Gifts, Restaurants, Bars, American (Traditional), Furniture Stores, Interior Design, Nightlife, Food, Gift Shops, Wine Bars, Home & Garden",5.0,2020,1.0
246b,Mambos Cafe,4423 N Armenia Ave,RGTW,Tampa,33664,27.9819779,-82.4841817,4.0,"Puerto Rican, Dominican, Caribbean, Restaurants, Mexican, Spanish",4.0,2020,1.0
2478,Amici Pizza,26602 Wesley Chapel Blvd,1GQ7,Lutz,33559,28.2273161874,-82.3759754343,4.0,"Pizza, Restaurants, Italian",4.4,2020,1.0
247a,Taqueria Guanajuato,308 1st St NE,D8OX,Ruskin,33570,27.7207764682,-82.4327214569,4.5,"Food Trucks, Food, Restaurants, Food Stands, Mexican",4.0,2020,1.0
2482,Miller's Ale House - Brandon,1817 W Brandon Blvd,W2W7,Brandon,33511,27.9375026,-82.3134475,3.5,"Nightlife, Sports Bars, Restaurants, Seafood, Bars, American (New), American (Traditional)",4.5,2020,1.0
248a,Taco bus,10039 Gibsonton Dr,TC12,Riverview,33579,27.8549178,-82.3396469,2.5,"Cuban, Delis, Cafes, Restaurants",3.3,2020,1.0
24a0,James Joyce Irish Pub & Eatery,1724 E 8th Ave,RGTW,Tampa,33664,27.9611208202,-82.4393979067,4.0,"Nightlife, Bars, Irish Pub, Pubs, Irish, Restaurants",4.2,2020,1.0
24f5,Karma Juice Bar & Eatery,"2095 Drew St, Unit B",MCCU,Clearwater,33769,27.9676201,-82.7507944,4.5,"Salad, Juice Bars & Smoothies, American (New), Restaurants, Acai Bowls, Food",4.6,2020,1.0
24f7,The Blind Tiger Cafe - SOHO,934 S Howard Ave,RGTW,Tampa,33664,27.9342352,-82.482918,4.5,"Coffee & Tea, Cafes, Restaurants, Food, Breakfast & Brunch, Beer, Wine & Spirits",4.4,2020,1.0
250b,The Green Table Restaurant,3390 Tampa Rd,IKXB,Palm Harbor,34685,28.066822,-82.7229768,4.5,"Restaurants, Vegetarian, Vegan",4.9,2020,1.0
2532,Florida Avenue Brewing Co.,2029 Arrowgrass Dr,CQ72,Wesley Chapel,33545,28.1862569,-82.3674802,4.0,"Restaurants, Event Planning & Services, Beer, Wine & Spirits, Venues & Event Spaces, Food, Breweries",3.6,2020,1.0
2538,Urban Creamery,689 Central Ave,9EV3,San Petersburgo,33730,27.7714559,-82.6435122,4.0,"Waffles, Restaurants, Desserts, Ice Cream & Frozen Yogurt, Food",3.7,2020,1.0
2547,Buffalo City Bar & Grille,5631 Park St N,9EV3,San Petersburgo,33730,27.823325,-82.75195,2.5,"Nightlife, Sports Bars, Bars, Restaurants, Dive Bars, American (Traditional)",2.9,2020,1.0
254a,Mel's House  Of Smoke BBQ & Catering,8916 N Nebraska Ave,RGTW,Tampa,33664,28.0313163,-82.4515339,5.0,"Restaurants, Barbeque, Food Trucks, Event Planning & Services, Food Stands, Food, Caterers",5.0,2020,1.0
2553,Grand Hyatt Tampa Bay,2900 Bayport Dr,RGTW,Tampa,33664,27.9651702134,-82.5500947185,4.0,"Hotels & Travel, Event Planning & Services, Restaurants, American (New), Hotels",3.9,2020,1.0
255f,Aqua,7627 W Courtney Campbell Cswy,RGTW,Tampa,33664,27.968135,-82.565418,3.5,"Lounges, Steakhouses, Seafood, Bars, Live/Raw Food, American (New), Nightlife, Restaurants, Sushi Bars",4.0,2020,1.0
2580,Healthy N Fresh Cafe,3648 Henderson Blvd,RGTW,Tampa,33664,27.9361062,-82.5028742,5.0,"Salad, Food, Juice Bars & Smoothies, Restaurants, Sandwiches",4.6,2020,1.0
2590,AMC Classic Palm Harbor 10,37912 Us Highway 19 N,IKXB,Palm Harbor,34685,28.1164830293,-82.7411479026,3.0,"Cinema, Dinner Theater, Arts & Entertainment, Restaurants",2.2,2020,1.0
25a3,Emily's Downtown Family Restaurant,101 S Garden Ave,MCCU,Clearwater,33769,27.964556,-82.798458,4.5,"Restaurants, Breakfast & Brunch",5.0,2020,1.0
25d3,King Corona Cigars,1523 E 7th Ave,RGTW,Tampa,33664,27.9601583,-82.442136,4.5,"Restaurants, Cafes, Tobacco Shops, Shopping",4.7,2020,1.0
2602,Rice N Roll,19243 N Dale Mabry Hwy,1GQ7,Lutz,33559,28.156886268200005,-82.4809901551,3.5,"Thai, Sushi Bars, Chinese, Asian Fusion, Restaurants",3.4,2020,1.0
261d,Golden Paan Shop,2017 - 3 E Fowler Ave,RGTW,Tampa,33664,28.0535141,-82.4364781,4.0,"Food, Shopping, Restaurants, Specialty Food, Indian, Tobacco Shops",1.0,2020,1.0
262b,The Hot Tomato Riverview,10451 Gibsonton Dr,TC12,Riverview,33579,27.8547064637,-82.3291953653,3.0,"Restaurants, American (New), Bakeries, Sandwiches, Fast Food, Coffee & Tea, Food",2.3,2020,1.0
2642,China 88,"1969 Sunset Point Rd, Ste 4",MCCU,Clearwater,33769,27.9895840566,-82.7565309026,4.0,"Restaurants, Chinese",3.7,2020,1.0
265c,Moonlight Boba,"6251 US Hwy 19 N, Ste 102-103",SJ01,Pinellas Park,33782,27.828897,-82.679151,4.5,"Bubble Tea, Food, Asian Fusion, Sandwiches, Restaurants, Noodles",4.6,2020,1.0
266d,Cuban Mexican Restaurant,4016 Ulmerton Rd,MCCU,Clearwater,33769,27.89318,-82.688496,3.5,"Mexican, Event Planning & Services, Caterers, Breakfast & Brunch, Cuban, Food, Coffee & Tea, Sandwiches, Restaurants",4.8,2020,1.0
268f,Juice Factory,"6431 E County Line Rd, Unit 110",RGTW,Tampa,33664,28.169528,-82.355271,4.5,"Food, Food Delivery Services, Fruits & Veggies, Wraps, Juice Bars & Smoothies, Specialty Food, Restaurants, Breakfast & Brunch",4.3,2020,1.0
26d0,Pisco Restaurant and Bar,7507 N Armenia Ave,RGTW,Tampa,33664,28.016089600000004,-82.4851343,3.0,"Nightlife, Sports Bars, Peruvian, Bars, Latin American, Restaurants",1.7,2020,0.5
26d5,Punta Cana Restaurant,"105 S US Hwy 301, Ste 126",RGTW,Tampa,33664,27.947581,-82.354387,4.5,"Restaurants, Dominican, Breakfast & Brunch, Caribbean, Cafes, Puerto Rican",4.7,2020,1.0
26db,The Pub Tampa Bay,"2223 N West Shore Blvd, Ste B212",RGTW,Tampa,33664,27.965461,-82.520734,4.0,"British, Nightlife, Bars, Pubs, Restaurants, Burgers",4.2,2020,1.0
26dd,Shang Hai,32785 Eiland Blvd,CQ72,Wesley Chapel,33545,28.05693245,-82.28437505,3.5,"Japanese, Chinese, Restaurants",3.2,2020,1.0
26e0,Papa’s Cuban Place,901 W Busch Blvd,RGTW,Tampa,33664,28.033608,-82.4682419,4.0,"Sandwiches, Latin American, Cuban, Restaurants, Cafes",4.7,2020,1.0
26f3,Alfonso's Pizzeria,14942 N Florida Ave,RGTW,Tampa,33664,28.086680838,-82.460234,4.0,"Sandwiches, Restaurants, Pizza",3.9,2020,1.0
26ff,Chewy Boba,2572 E Fowler Ave,RGTW,Tampa,33664,28.055172,-82.429783,4.5,"Juice Bars & Smoothies, Specialty Food, Desserts, Cafes, Coffee & Tea, Restaurants, Food, Bubble Tea, Macarons",3.9,2020,1.0
2703,Thai Cuisine,11078 Spring Hill Dr,I0WF,Spring Hill,34610,28.4599263,-82.5412208,4.0,"Thai, Restaurants",3.0,2020,1.0
272c,Wooden Spoon,712 S Collins St,7QXG,Plant City,33567,28.00854,-82.12148,4.5,"Restaurants, Seafood, Sandwiches, American (Traditional), Burgers, German",4.7,2020,1.0
2730,Jägerstüble,1995 East Bay Dr,LIFE,Largo,33778,27.916170000000005,-82.76676,4.5,"German, Restaurants",4.2,2020,1.0
274f,Clean Juice Safety Harbor,"2516 McMullen Booth Rd, Ste A",MCCU,Clearwater,33769,28.0130267,-82.709123,4.0,"Salad, Restaurants, Juice Bars & Smoothies, Organic Stores, Acai Bowls, Food",4.4,2020,1.0
2762,New World Brewery,810 E Skagway Ave,RGTW,Tampa,33664,28.0324123,-82.4524689,5.0,"Bars, Pizza, Nightlife, Restaurants, Arts & Entertainment, Music Venues",5.0,2020,1.0
276d,Fly Bar & Restaurant,442 W Kennedy Blvd,RGTW,Tampa,33664,27.944881,-82.465248,4.5,"Cocktail Bars, American (New), Restaurants, Nightlife, Bars, American (Traditional)",4.3,2020,1.0
27dc,Big Bamboo Bayside,2506 N Rocky Point Dr,RGTW,Tampa,33664,27.9634819,-82.5722037,4.0,"Burgers, American (Traditional), Nightlife, Restaurants, Bars, Fast Food, Tiki Bars",3.4,2020,1.0
27dd,Kookie Krums,513 Main St,L2T6,Dunedin,34698,28.012494,-82.785657,3.5,"Bakeries, Flowers & Gifts, Food, Florists, Shopping, Restaurants",3.5,2020,1.0
2809,E Sushi & Grill,6428 US Hwy 41 N,20PF,Apollo Beach,33572,27.7705219,-82.3911457,4.5,"Restaurants, Sushi Bars, Japanese",4.5,2020,1.0
280d,Fit Bowl,214 E Davis Blvd,RGTW,Tampa,33664,27.9270636,-82.4538991,5.0,"Food, Pop-up Shops, Acai Bowls, Juice Bars & Smoothies, Shopping, Vegan, Restaurants",5.0,2020,1.0
2816,Tampa Bay Brewing Company Westchase,13937 Monroe's Business Park,RGTW,Tampa,33664,28.037844501300004,-82.6476599503,4.0,"American (New), Breweries, Food, American (Traditional), Restaurants, Gastropubs",4.1,2020,1.0
2835,Dinner Done,"10330 N Dale Mabry Hwy, Ste 120",RGTW,Tampa,33664,28.0442727,-82.5054809,4.5,"Food, Food Delivery Services, Fast Food, Cooking Schools, Diners, Restaurants, Event Planning & Services, Specialty Schools, Education, Specialty Food, Caterers, Do-It-Yourself Food, Health Markets",5.0,2020,1.0
2843,Square 1 Burgers & Bar,4100 George J Bean Pkwy,RGTW,Tampa,33664,27.9767094,-82.5377468,2.5,"Burgers, Hot Dogs, Restaurants",4.5,2020,1.0
2855,North Beach Parking Plaza,490 Poinsettia Ave,MCCU,Clearwater,33769,27.9817337,-82.8261828,3.0,"Automotive, Parking, Beauty & Spas, Nail Salons, Breakfast & Brunch, Restaurants",4.0,2020,0.5
285c,Three Brothers Pizza,17773 Gunn Hwy,L60Q,Odessa,33556,28.12983,-82.5746,4.5,"Food, Italian, Wraps, Sandwiches, Pizza, Restaurants, Food Delivery Services, Breakfast & Brunch",3.9,2020,1.0
2861,Taziki's Mediterranean Cafe - Tampa,3825 Northdale Blvd,RGTW,Tampa,33664,28.094306,-82.504314,4.0,"Restaurants, Mediterranean",4.8,2020,1.0
2864,Garden Grille Cafe,34018 US Hwy 19 N,IKXB,Palm Harbor,34685,28.05298713333333,-82.68575726666667,3.7,"Breakfast & Brunch, Mexican, Cafes, American (Traditional), Greek, American (New), Restaurants, Diners",4.3,2020,1.0
2873,La Guantanamera Restaurant,"1812 S Parson Ave, Ste 102",JIN0,Seffner,33584,27.9802869,-82.2856519,4.5,"Cuban, Restaurants",5.0,2020,1.0
289c,Gorditas Don Huicho,2071 Drew St,MCCU,Clearwater,33769,27.9674825,-82.7516337,3.5,"Restaurants, Mexican",1.0,2020,0.5
289e,Thai Basil,4445 E Bay Dr,MCCU,Clearwater,33769,27.915499,-82.7410569,4.0,"Restaurants, Thai",2.8,2020,1.0
28ad,Pho 813,3701 Henderson Blvd,RGTW,Tampa,33664,27.9354554,-82.5043982,4.5,"Restaurants, Vietnamese",5.0,2020,1.0
28e8,Kung Fu Tea,1202 E Fowler Ave,RGTW,Tampa,33664,27.9366362,-82.5878656511111,4.0,"Food, Coffee & Tea, Bubble Tea, Restaurants, Asian Fusion, Juice Bars & Smoothies",3.7,2020,1.0
290a,Havana Harry's Market &  Cafe,"14219 Walsingham Rd, Ste A",LIFE,Largo,33778,27.8808246609,-82.834875114,4.0,"Food, Cafes, Soup, Salad, Desserts, Cuban, Restaurants",3.8,2020,1.0
2935,Circle S BBQ,14630 US 19,Y3QW,Hudson,34669,28.370366,-82.686436,4.0,"Sandwiches, Barbeque, Salad, Restaurants",3.6,2020,1.0
295e,La La’s Sangria Bar,203 N Meridian Ave,RGTW,Tampa,33664,27.9488681449,-82.4484995614,3.5,"Food, Tapas Bars, Cocktail Bars, Nightlife, Restaurants, Desserts, Beer Bar, Salad, Bars, Sandwiches",3.3,2020,1.0
2965,Falafel N Cafe,24139 US Hwy 19 N,MCCU,Clearwater,33769,27.9913268,-82.7279303,4.0,"Egyptian, Restaurants, Middle Eastern, Mediterranean",3.9,2020,1.0
2993,Casa Compay,11681 49th St N,MCCU,Clearwater,33769,27.8775946251,-82.6997831091,4.0,"Cuban, Bakeries, Restaurants, Breakfast & Brunch, Cafeteria, Food",2.0,2020,1.0
299d,The Cafe by Mise en Place,4100 George J Bean Pkwy,RGTW,Tampa,33664,27.9767229922,-82.5376686706,3.5,"Breakfast & Brunch, American (New), Nightlife, Bars, Restaurants, Cocktail Bars",3.6,2020,1.0
